Prek Center Name;License Type;3 Year Old Capacity;4 Year Old Capacity;Total Capacity;Test;Grade and Subject;Valid Tests;Proficient Tests;Percent Proficient;Funding Source;Address;Zip Code;City;Full Address;Latitude;Longitude;Census Tract 2000;Census Tract 2010;Census Tract 2020;City Council District;Commission District;Super District;Geopoint
Memphis STEM Academy community partners;DOE;2;18;20.0;TNReady;3rd - ELA;31.0;8.0;25.8;VPK;2180 Frayser Blvd;38127;Memphis;2180 Frayser Blvd Memphis, TN 38127;35.21826399;-89.99169601;47157010210;47157010210;47157010210;7;7;8;34.15354575303699, -92.50896978613359
Georgian Hills Elementary Pre-K;DOE;2;18;20.0;TNReady;3rd - ELA;32.0;8.0;25.0;SPED;3930 Leweir Street;38127;Memphis;3930 Leweir Street Memphis, TN 38127;35.2329617;-89.9978871;47157010000;47157010000;47157010002;7;6;8;34.1535457921889, -92.50896980977086
Hawkins Mill Elementary Pre-K;DOE;0;20;20.0;TNReady;3rd - ELA;34.0;12.0;35.3;Fund 1;4295 Mountain Terrace Street;38127;Memphis;4295 Mountain Terrace Street Memphis, TN 38127;35.2431754;-89.9844058;47157010000;47157010000;47157010001;7;6;8;34.1535458226426, -92.50896976757016
Barret's Chapel School Pre-K;DOE;0;20;20.0;TNReady;3rd - ELA;35.0;16.0;45.7;Fund 1;10280 Godwin Road;38002;Arlington;10280 Godwin Road Arlington, TN 38002;35.3488747;-89.7202406;47157020810;47157020810;47157020835;;1;;34.15354616055579, -92.50896891991371
Rozelle Elementary Pre-K;DOE;0;20;20.0;TNReady;3rd - ELA;40.0;13.0;32.5;Fund 1;993 Roland Street;38114;Memphis;993 Roland Street Memphis, TN 38114;35.1190361;-90.0094994;47157006200;47157006200;47157006200;4;9;9;34.153545477832665, -92.50896982303726
Sharpe Elementary Pre-K;DOE;10;10;20.0;TNReady;3rd - ELA;44.0;10.0;22.7;VPK;3431 SHARPE;38111;Memphis;3431 SHARPE Memphis, TN 38111;35.0858593;-89.9481673;47157008200;47157008200;47157008200;4;10;8;34.153545398100846, -92.50896961356064
Larose Elementary School Pre-K;DOE;9;11;20.0;TNReady;3rd - ELA;44.0;3.0;6.8;Head Start;864 South Wellington;38126;Memphis;864 South Wellington Memphis, TN 38126;35.1236028;-90.0470627;47157004900;47157011600;47157011600;6;8;8;34.15354548349156, -92.50896994787384
Geeter K-8 Elementary Pre-K;DOE;10;10;20.0;TNReady;3rd - ELA;45.0;;;VPK;4649 Horn Lake Road;38109;Memphis;4649 Horn Lake Road Memphis, TN 38109;35.0216753;-90.0693285;47157022330;47157022330;47157022330;6;11;8;34.153545200073836, -92.50896999889584
Geeter K-8 Elementary Pre-K;DOE;2;18;20.0;TNReady;3rd - ELA;45.0;;;VPK/Head Start;4649 Horn Lake Road;38109;Memphis;4649 Horn Lake Road Memphis, TN 38109;35.0216753;-90.0693285;47157022330;47157022330;47157022330;6;11;8;34.153545200073836, -92.50896999889584
Northaven Elementary School Pre-K;DOE;10;10;20.0;TNReady;3rd - ELA;47.0;6.0;12.8;Head Start;5157 NORTH CIRCLE ROAD;38127;Memphis;5157 NORTH CIRCLE ROAD Memphis, TN 38127;35.2651384;-90.0424123;47157020100;47157020101;47157020101;;1;;34.1535458722478, -92.50896996362108
Keystone Elementary Pre-K;DOE;0;20;20.0;TNReady;3rd - ELA;53.0;11.0;20.8;F8M;4301 Old Allen Road;38128;Memphis;4301 Old Allen Road Memphis, TN 38128;35.2431139;-89.9533094;47157020521;47157020521;47157020521;7;6;9;34.153545828150605, -92.50896966504207
ASD Cornerstone Prep @ Lester Pre-K;DOE;40;40;80.0;TNReady;3rd - ELA;54.0;8.0;14.8;VPK;320 Carpenter Street;38122;Memphis;320 Carpenter Street Memphis, TN 38122;35.1412147;-89.9632977;47157002800;47157002800;47157002800;5;7;9;34.15354554705165, -92.5089696755954
Evans Elementary School Pre-K;DOE;9;11;20.0;TNReady;3rd - ELA;56.0;11.0;19.6;Head Start;4949 Cottonwood Road;38118;Memphis;4949 Cottonwood Road Memphis, TN 38118;35.0686331;-89.8983663;47157010710;47157010710;47157010710;4;12;8;34.153545359979944, -92.50896944560067
Evans Elementary School Pre-K;DOE;40;40;80.0;TNReady;3rd - ELA;56.0;11.0;19.6;VPK;4949 Cottonwood Road;38118;Memphis;4949 Cottonwood Road Memphis, TN 38118;35.0686331;-89.8983663;47157010710;47157010710;47157010710;4;12;8;34.153545359979944, -92.50896944560067
Getwell Elementary School Pre-K;DOE;4;36;40.0;TNReady;3rd - ELA;57.0;13.0;22.8;VPK/Head Start;2795 Getwell Road;38118;Memphis;2795 Getwell Road Memphis, TN 38118;35.0729528;-89.9334371;47157010500;47157010500;47157010500;3;12;8;34.153545365416896, -92.50896956216604
Levi Elementary Pre-K;DOE;4;36;40.0;TNReady;3rd - ELA;60.0;9.0;15.0;VPK/Head Start;135 West Levi Road;38109;Memphis;135 West Levi Road Memphis, TN 38109;35.0420066;-90.0689409;47157022310;47157022310;47157022310;6;11;8;34.153545255866675, -92.50897000208234
Kingsbury Elementary School Pre-K;DOE;20;20;40.0;TNReady;3rd - ELA;60.0;10.0;16.7;VPK;4055 Bayliss Road;38108;Memphis;4055 Bayliss Road Memphis, TN 38108;35.1690002;-89.9253392;47157008800;47157008800;47157008800;5;7;9;34.153545630132726, -92.5089695565598
Scenic Hills Elementary Pre-K;DOE;30;30;60.0;TNReady;3rd - ELA;62.0;7.0;11.3;Head Start;3450 Scenic Hills Hwy.;38128;Memphis;3450 Scenic Hills Hwy. Memphis, TN 38128;35.2065973;-89.9603461;47157020511;47157020511;47157020511;7;7;8;34.153545726784856, -92.50896968022151
South Park Elementary School Pre-K;DOE;10;10;20.0;TNReady;3rd - ELA;63.0;14.0;22.2;VPK/Head Start;1720 Getwell;38111;Memphis;1720 Getwell Memphis, TN 38111;35.0840481;-89.9304363;47157008300;47157011800;47157011800;4;10;9;34.15354539637363, -92.50896955470968
South Park Elementary School Pre-K;DOE;2;18;20.0;TNReady;3rd - ELA;63.0;14.0;22.2;VPK/Head Start;1720 Getwell;38111;Memphis;1720 Getwell Memphis, TN 38111;35.0840481;-89.9304363;47157008300;47157011800;47157011800;4;10;9;34.15354539637363, -92.50896955470968
Whitehaven Elementary Pre-K;DOE;0;40;40.0;TNReady;3rd - ELA;66.0;10.0;15.2;F8M;4783 Elvis Presley Blvd.;38116;Memphis;4783 Elvis Presley Blvd. Memphis, TN 38116;35.018505;-90.0265286;47157022120;47157022121;47157022121;3;11;8;34.15354519919797, -92.50896985710253
Bruce Elementary Pre-K;DOE;20;20;40.0;TNReady;3rd - ELA;69.0;12.0;17.4;Head Start;581 S. Bellevue;38104;Memphis;581 S. Bellevue Memphis, TN 38104;35.1311735;-90.0225918;47157004600;47157004600;47157004600;6;8;8;34.15354550870771, -92.5089698688637
William H. Brewster Elementary Pre-K;DOE;6;54;60.0;TNReady;3rd - ELA;72.0;14.0;19.4;VPK/Head Start;2605 Sam Cooper Blvd;38112;Memphis;2605 Sam Cooper Blvd Memphis, TN 38112;35.1462625;-89.9737585;47157002700;47157002700;47157002700;5;7;9;34.1535455589766, -92.5089697111896
Lowrance School Pre-K;DOE;4;36;40.0;TNReady;3rd - ELA;73.0;9.0;12.3;VPK/Head Start;7740 Lowrance Road;38125;Memphis;7740 Lowrance Road Memphis, TN 38125;35.0365961;-89.805421;47157021745;47157021745;47157021745;;13;;34.1535452891429, -92.50896913215601
Fox Meadows Elementary School Pre-K;DOE;2;18;20.0;TNReady;3rd - ELA;79.0;34.0;43.0;SPED;2960 EMERALD;38115;Memphis;2960 EMERALD Memphis, TN 38115;35.0680919;-89.8790881;47157010720;47157010720;47157010720;4;12;8;34.153545362015855, -92.50896938192795
Holmes Road Elementary Pre-K;DOE;2;18;20.0;TNReady;3rd - ELA;83.0;17.0;20.5;SPED;1083 Holmes Road;38116;Memphis;1083 Holmes Road Memphis, TN 38116;35.0052494;-90.0298824;47157022130;47157022130;47157022130;3;12;8;34.153545162256066, -92.50896986524828
Wells Station Elementary Pre-K;DOE;6;54;60.0;TNReady;3rd - ELA;88.0;46.0;52.3;VPK/Head Start;1610 Wells Station Road;38108;Memphis;1610 Wells Station Road Memphis, TN 38108;35.1753119;-89.9156864;47157009100;47157009100;47157009100;7;6;9;34.153545649193326, -92.50896952612362
Lucie E. Campbell Elementary Pre-K;DOE;9;11;20.0;TNReady;3rd - ELA;91.0;;;Head Start;3232 Birchfield Drive;38127;Memphis;3232 Birchfield Drive Memphis, TN 38127;35.2144137;-89.9691698;47157010220;47157010220;47157010220;1;6;9;34.15354574659658, -92.50896971102665
Germantown Elementary Pre-K;DOE;20;20;40.0;TNReady;3rd - ELA;93.0;39.0;41.9;619;2730 Cross Country Drive;38138;Memphis;2730 Cross Country Drive Memphis, TN 38138;35.0735635;-89.8020575;47157021342;47157021342;47157021355;;4;;34.15354539107363, -92.50896912918488
Oak Elementary Pre-K;DOE;20;20;40.0;TNReady;3rd - ELA;99.0;52.0;52.5;VPK;3573 Oak Road;38135;Bartlett;3573 Oak Road Bartlett, TN 38135;35.2240624;-89.8275808;47157020631;47157020633;47157020633;;3;;34.15354579888747, -92.508969246373
Bartlett Elementary Pre-K;DOE;20;20;40.0;TNReady;3rd - ELA;99.0;50.0;50.5;F8M;3932 Billy Maher Rd.;38135;Bartlett;3932 Billy Maher Rd. Bartlett, TN 38135;35.2332442;-89.8637611;47157020641;47157020643;47157020655;;3;;34.153545817447466, -92.50896936766365
Westhaven Elementary School Pre-K;DOE;20;20;40.0;TNReady;3rd - ELA;103.0;11.0;10.7;619;4585 Hodge Road;38109;Memphis;4585 Hodge Road Memphis, TN 38109;35.0240056;-90.0498656;47157022322;47157022322;47157022322;6;11;8;34.15354521001339, -92.50896993524474
Downtown Elementary Pre-K;DOE;0;60;60.0;TNReady;3rd - ELA;105.0;18.0;17.1;F8M;10 North 4th Street;38103;Memphis;10 North 4th Street Memphis, TN 38103;35.1443156;-90.0468747;47157004100;47157011400;47157011402;7;8;8;34.153545540293564, -92.50896995180213
Rivercrest Elementary Pre-K;DOE;13;13;26.0;TNReady;3rd - ELA;106.0;57.0;53.8;619 blended;4825 Rivercrest Lane;38135;Bartlett;4825 Rivercrest Lane Bartlett, TN 38135;35.2584512;-89.8539386;47157020641;47157020644;47157020657;;3;;34.15354588832548, -92.508969340817
Rivercrest Elementary Pre-K;DOE;20;20;40.0;TNReady;3rd - ELA;106.0;57.0;53.8;VPK;4825 Rivercrest Ln;38135;Bartlett;4825 Rivercrest Ln Bartlett, TN 38135;35.2584512;-89.8539386;47157020641;47157020644;47157020657;;3;;34.15354588832548, -92.508969340817
Parkway Village Elementary Pre-K;DOE;30;30;60.0;TNReady;3rd - ELA;119.0;24.0;20.2;Head Start;3000 Claudette Road;38118;Memphis;3000 Claudette Road Memphis, TN 38118;35.0669197;-89.9244909;47157010610;47157010610;47157010610;4;12;9;34.15354535051506, -92.50896953134864
Altruria Elementary Preschool;DOE;20;20;40.0;TNReady;3rd - ELA;142.0;71.0;50.0;tuition;6641 Deermont Drive;38134;Bartlett;6641 Deermont Drive Bartlett, TN 38134;35.2149161;-89.842138;47157020631;47157020634;47157020634;;3;;34.153545771162776, -92.50896929235498
Riverwood Elementary Pre-K;DOE;0;40;40.0;TNReady;3rd - ELA;145.0;73.0;50.3;Fund 1;1330 Stern Lane;38016;Memphis;1330 Stern Lane Memphis, TN 38016;35.1614747;-89.7756071;47157021136;47157021136;47157021136;2;2;9;34.15354563684073, -92.50896906128996
Millington Primary School Pre-K;DOE;130;130;260.0;TNReady;3rd - ELA;180.0;76.0;42.2;VPK;6445 William Osteen Drive;38053;Memphis;6445 William Osteen Drive Memphis, TN 38053;35.3428433;-89.8475023;47157020210;47157020210;47157020210;;1;;34.15354612079425, -92.50896933812926
Macon Road Baptist School - Lakeland Campus;Unlicensed;100;100;200.0;;;;;;tuition;11015 Highway 64;38002;Arlington;11015 Highway 64 Arlington, TN 38002;35.2050644;-89.6959058;47157021010;47157021010;47157021023;;1;;34.15354577085645, -92.50896880811236
Lambs & Ivy;DOE;9;11;20.0;;;;;;Head Start;1185 Macon View Drive;38018;Memphis;1185 Macon View Drive Memphis, TN 38018;35.1577808;-89.7324965;47157021020;47157021020;47157021020;;2;;34.15354563458654, -92.50896891835741
Youth Engineered Success @Havenview LEAP;DOE;40;40;80.0;;;;;;tuition;1481 Hester Road;38116;Memphis;1481 Hester Road Memphis, TN 38116;35.0090825;-90.0143188;47157022120;47157022121;47157022121;3;11;8;34.15354517560256, -92.50896981478186
Delano Head Start;DOE;20;20;40.0;;;;;;Head Start;1727 Oberle Ave;38127;Memphis;1727 Oberle Ave Memphis, TN 38127;35.2010219;-90.005756;47157010120;47157010120;47157010120;7;8;8;34.15354570321489, -92.50896982869877
Gateway;DOE;9;11;20.0;;;;;;Head Start;185 East Norwood;38109;Memphis;185 East Norwood Memphis, TN 38109;35.0912092;-90.0565917;47157005500;47157005500;47157005500;6;9;8;34.15354539297079, -92.5089699721749
Evangelical Christian School - Lower School;Unlicensed;10;10;20.0;;;;;;tuition;1920 Forest Hill-Irene Road;38139;Germantown;1920 Forest Hill-Irene Road Germantown, TN 38139;35.0962831;-89.7566896;47157021353;47157021353;47157021357;;4;;34.15354546162311, -92.50896898461058
St. Francis of Assisi Early Childhood;DOE;40;40;80.0;;;;;;tuition;2100 N. Germantown Parkway;38016;Memphis;2100 N. Germantown Parkway Memphis, TN 38016;35.1828273;-89.791387;47157021134;47157021142;47157021142;1;2;9;34.15354569248131, -92.50896911799965
The Little House Enrichment Center, LLC;DHS;9;9;18.0;;;;;;tuition;2125 S. Third Street;38109;Memphis;2125 S. Third Street Memphis, TN 38109;35.0892445;-90.0571962;47157005500;47157005500;47157005500;6;9;8;34.15354538747579, -92.50896997373633
Balmoral Baptist Church Pre-School;DHS;20;20;40.0;;;;;;tuition;2676 Kirby Rd.;38119;Memphis;2676 Kirby Rd. Memphis, TN 38119;35.0758329;-89.84176;47157021332;47157021333;47157021333;2;10;9;34.1535453900458, -92.50896926056924
Kids R Kreative;DHS;10;10;20.0;;;;;;tuition;2767 Frayser Blvd;38127;Memphis;2767 Frayser Blvd Memphis, TN 38127;35.2210682;-89.9711019;47157010220;47157010220;47157010220;1;6;9;34.1535457644819, -92.50896971885733
Ridgeway Early Learning Center;DOE;0;100;100.0;;;;;;F8M;3435 Ridge Meadow Parkway;38115;Memphis;3435 Ridge Meadow Parkway Memphis, TN 38115;35.0540048;-89.8581424;47157021721;47157021721;47157021721;3;13;8;34.153545327230866, -92.50896930978367
Ridgeway Early Learning Center;DOE;40;40;80.0;;;;;;VPK;3435 Ridge Meadow Parkway;38115;Memphis;3435 Ridge Meadow Parkway Memphis, TN 38115;35.0540048;-89.8581424;47157021721;47157021721;47157021721;3;13;8;34.153545327230866, -92.50896930978367
Christ Trinity Christian Academy @ SWPC;DOE;40;40;80.0;;;;;;tuition;3655 Southwind Park Cove;38125;Memphis;3655 Southwind Park Cove Memphis, TN 38125;35.0487841;-89.7643568;47157021342;47157021342;47157021355;;4;;34.153545330042775, -92.50896899945708
St. George's Independent School - Memphis Campus;Unlicensed;120;120;240.0;;;;;;tuition;3749 Kimball Ave;38111;Memphis;3749 Kimball Ave Memphis, TN 38111;35.0921299;-89.937293;47157008200;47157008200;47157008200;4;10;9;34.1535454172718, -92.50896957908854
Breath of Life Preparatory Preschool;DOE;40;40;80.0;;;;;;tuition;3795 Frayser Raleigh Road;38128;Memphis;3795 Frayser Raleigh Road Memphis, TN 38128;35.2219643;-89.9363381;47157020512;47157020512;47157020544;1;6;9;34.15354577328386, -92.50896960444929
Presbyterian Day School - ESP;DOE;40;40;80.0;;;;;;tuition;4025 Poplar Ave.;38111;Memphis;4025 Poplar Ave. Memphis, TN 38111;35.123249;-89.9295839;47157007300;47157007300;47157007300;5;10;9;34.153545503967344, -92.50896956050725
La Petite Academy @ New Allen;DHS;10;10;20.0;;;;;;tuition;4125 New Allen Rd.;38128;Memphis;4125 New Allen Rd. Memphis, TN 38128;35.2390894;-89.9510463;47157020521;47157020521;47157020521;7;6;9;34.15354581753377, -92.50896965669767
Joyful Learning Center;DHS;10;10;20.0;;;;;;tuition;465 East Raines;38109;Memphis;465 East Raines Memphis, TN 38109;35.0343969;-90.0485966;47157022322;47157022322;47157022322;6;11;8;34.15354523872452, -92.50896993334297
True Love Christian Academy LLC;DHS;10;10;20.0;;;;;;tuition;466 E. Raines Road;38109;Memphis;466 E. Raines Road Memphis, TN 38109;35.0349766;-90.0484327;47157022321;47157022321;47157022321;6;11;8;34.153545240343234, -92.50896993292993
St. Agnes Academy - St Dominic School EC;DOE;40;40;80.0;;;;;;tuition;4830 Walnut Grove Rd;38117;Memphis;4830 Walnut Grove Rd Memphis, TN 38117;35.1318304;-89.9006023;47157008600;47157008600;47157008600;5;5;9;34.15354553277692, -92.50896946684874
Holy Rosary Preschool;DOE;60;60;120.0;;;;;;tuition;4841 Park Avenue;38117;Memphis;4841 Park Avenue Memphis, TN 38117;35.1058624;-89.9004961;47157009400;47157009400;47157009400;5;10;9;34.15354546162569, -92.50896946079664
St. Louis Preschool;DOE;40;40;80.0;;;;;;tuition;5192 Shady Grove Road;38117;Memphis;5192 Shady Grove Road Memphis, TN 38117;35.1245019;-89.8882704;47157009600;47157009600;47157009600;2;5;9;34.15354551494283, -92.50896942458535
Woodland Presbyterian School;Unlicensed;10;10;20.0;;;;;;tuition;5217 Park Ave;38119;Memphis;5217 Park Ave Memphis, TN 38119;35.1043817;-89.8883796;47157009500;47157009500;47157009501;2;10;9;34.15354545977937, -92.5089694205274
Christ Trinity Christian Academy @ SR;DOE;40;40;80.0;;;;;;tuition;5225 Shady Ridge Drive;38141;Memphis;5225 Shady Ridge Drive Memphis, TN 38141;35.0052379;-89.846034;47157021753;47157021753;47157021753;;13;;34.15354519578553, -92.50896925915812
Shady Grove;DOE;27;33;60.0;;;;;;Head Start;5360 Shady Grove Rd;38120;Memphis;5360 Shady Grove Rd Memphis, TN 38120;35.1236642;-89.884222;47157009600;47157009600;47157009600;5;10;9;34.15354551338595, -92.50896941105518
Shady Grove;DOE;60;60;120.0;;;;;;Head Start Centers;5360 Shady Grove Rd;38120;Memphis;5360 Shady Grove Rd Memphis, TN 38120;35.1236642;-89.884222;47157009600;47157009600;47157009600;5;10;9;34.15354551338595, -92.50896941105518
Shady Grove;DOE;60;60;120.0;;;;;;Fund 1;5360 Shady Grove Rd;38120;Memphis;5360 Shady Grove Rd Memphis, TN 38120;35.1236642;-89.884222;47157009600;47157009600;47157009600;5;10;9;34.15354551338595, -92.50896941105518
Shady Grove;DOE;0;20;20.0;;;;;;Fund 1;5360 Shady Grove Rd;38120;Memphis;5360 Shady Grove Rd Memphis, TN 38120;35.1236642;-89.884222;47157009600;47157009600;47157009600;5;10;9;34.15354551338595, -92.50896941105518
Buntyn Preschool;DHS;12;12;24.0;;;;;;tuition;561 S. Prescott Street;38111;Memphis;561 S. Prescott Street Memphis, TN 38111;35.1163703;-89.9490477;47157007200;47157007200;47157007200;5;9;9;34.15354548156178, -92.50896962316257
STEAM Tots Academy, Inc.;DHS;8;8;16.0;;;;;;tuition;5680 Winchester Road;38115;Memphis;5680 Winchester Road Memphis, TN 38115;35.0506675;-89.8740814;47157010820;47157010820;47157010820;4;12;8;34.15354531517469, -92.5089693615965
Memphis Jewish Community Center;DHS;50;50;100.0;;;;;;tuition;6560 Poplar Ave.;38138;Memphis;6560 Poplar Ave. Memphis, TN 38138;35.1002767;-89.8444722;47157021310;47157021311;47157021311;2;10;9;34.15354545654393, -92.5089692748778
I Rise Christian Academy;DHS;21;21;42.0;;;;;;tuition;6655 Winchester Road;38115;Memphis;6655 Winchester Road Memphis, TN 38115;35.0478335;-89.8415771;47157021742;47157021746;47157021746;3;13;9;34.1535453133411, -92.50896925381824
Grace Presbyterian Preschool Extended;DHS;10;10;20.0;;;;;;tuition;6671 Yale Road;38134;Bartlett;6671 Yale Road Bartlett, TN 38134;35.2166743;-89.8405895;47157020631;47157020634;47157020634;;3;;34.15354577626417, -92.50896928763613
New Life Learning Academy;DHS;14;14;28.0;;;;;;tuition;6825 East Holmes Road;38141;Memphis;6825 East Holmes Road Memphis, TN 38141;35.0041247;-89.836496;47157021753;47157021753;47157021753;;13;;34.15354519447572, -92.50896922747006
Briarcrest Christian School - Houston Levee Elementary;Unlicensed;66;66;132.0;;;;;;tuition;76 South Houston Levee;38028;Eads;76 South Houston Levee  Eads, TN 38028;35.1227137;-89.7313202;47157021020;47157021020;47157021020;;2;;34.153545538692704, -92.50896890677959
The Learning Journey Academy, Inc.;DHS;10;10;20.0;;;;;;tuition;8229 Rockcreek Parkway;38016;Memphis;8229 Rockcreek Parkway Memphis, TN 38016;35.1916164;-89.7892899;47157021134;47157021142;47157021142;1;2;9;34.15354571695246, -92.5089691130161
Farmington Presbyterian Day School;DHS;16;16;32.0;;;;;;tuition;8245 Farmington Boulevard;38139;Germantown;8245 Farmington Boulevard Germantown, TN 38139;35.0948342;-89.7883612;47157021352;47157021352;47157021352;;4;;34.153545451870556, -92.50896908870325
Memphis Business Academy Gmtwn Comm PreK;DOE;8;72;80.0;TNReady;3rd - ELA;22.0;2.0;9.1;VPK;4442 S. Germantown Road;38125;Memphis;4442 S. Germantown Road Memphis, TN 38125;35.0271097;-89.8219791;47157021745;47157021745;47157021745;;13;;34.153545260120836, -92.5089691846596
Memphis STEM Academy;DOE;9;11;20.0;TNReady;3rd - ELA;31.0;8.0;25.8;Head Start;2180 Frayser Blvd;38127;Memphis;2180 Frayser Blvd Memphis, TN 38127;35.21826399;-89.99169601;47157010210;47157010210;47157010210;7;7;8;34.15354575303699, -92.50896978613359
Georgian Hills Elementary Pre-K;DOE;9;11;20.0;TNReady;3rd - ELA;32.0;8.0;25.0;Head Start;3930 Leweir Street;38127;Memphis;3930 Leweir Street Memphis, TN 38127;35.2329617;-89.9978871;47157010000;47157010000;47157010002;7;6;8;34.1535457921889, -92.50896980977086
Dunbar Elementary School Pre-K;DOE;10;10;20.0;TNReady;3rd - ELA;33.0;6.0;18.2;Head Start;2606 Select Ave.;38114;Memphis;2606 Select Ave. Memphis, TN 38114;35.1067104;-89.9755135;47157006800;47157006800;47157006800;4;9;8;34.153545450255585, -92.5089697082905
Cummings;DOE;9;11;20.0;TNReady;3rd - ELA;34.0;6.0;17.6;Head Start;1037 Cummings St;38106;Memphis;1037 Cummings St Memphis, TN 38106;35.11888627;-90.02811369;47157004700;47157011500;47157011500;4;8;8;34.15354547402404, -92.50896988436955
Delano Elementary Pre-K;DOE;20;20;40.0;TNReady;3rd - ELA;35.0;17.0;48.6;VPK;1716 Delano Ave.;38127;Memphis;1716 Delano Ave. Memphis, TN 38127;35.1994198;-90.0057401;47157010120;47157010120;47157010120;7;8;8;34.1535456988269, -92.50896982829457
Delano Elementary Pre-K;DOE;4;36;40.0;TNReady;3rd - ELA;35.0;17.0;48.6;VPK/Head Start;1716 Delano Ave.;38127;Memphis;1716 Delano Ave. Memphis, TN 38127;35.1994198;-90.0057401;47157010120;47157010120;47157010120;7;8;8;34.1535456988269, -92.50896982829457
Jackson Elementary Pre-K;DOE;10;10;20.0;TNReady;3rd - ELA;36.0;11.0;30.6;Head Start;3925 Wales Avenue;38108;Memphis;3925 Wales Avenue Memphis, TN 38108;35.1844053;-89.9290723;47157008900;47157008900;47157008900;7;6;9;34.153545671672084, -92.50896957224923
Whitney Elementary School Pre-K;DOE;18;22;40.0;TNReady;3rd - ELA;42.0;6.0;14.3;Head Start;1219 Whitney Avenue;38127;Memphis;1219 Whitney Avenue Memphis, TN 38127;35.2074173;-90.0233573;47157010120;47157010120;47157010120;7;8;8;34.15354571752972, -92.50896988812875
Peabody Elementary Pre-K;DOE;0;20;20.0;TNReady;3rd - ELA;42.0;15.0;35.7;F8M;2086 Young Avenue;38104;Memphis;2086 Young Avenue Memphis, TN 38104;35.1199154;-89.9924952;47157006300;47157006300;47157006300;4;9;9;34.15354548334664, -92.5089697671731
Memphis Business Academy PreK;DOE;60;60;120.0;TNReady;3rd - ELA;46.0;14.0;30.4;VPK;1082 Berclair Road;38122;Memphis;1082 Berclair Road Memphis, TN 38122;35.1607891;-89.9100638;47157008700;47157008700;47157008700;5;5;9;34.153545610417005, -92.50896950439888
Newberry Elementary School Pre-K;DOE;9;11;20.0;TNReady;3rd - ELA;46.0;25.0;54.3;Head Start;5540 Newberry Road;38115;Memphis;5540 Newberry Road Memphis, TN 38115;35.0546554;-89.8787582;47157010820;47157010820;47157010820;4;12;8;34.15354532525062, -92.50896937789003
Northaven Elementary School Pre-K;DOE;4;36;40.0;TNReady;3rd - ELA;47.0;6.0;12.8;VPK/Head Start;5157 NORTH CIRCLE ROAD;38127;Memphis;5157 NORTH CIRCLE ROAD Memphis, TN 38127;35.2651384;-90.0424123;47157020100;47157020101;47157020101;;1;;34.1535458722478, -92.50896996362108
Aurora Collegiate;DOE;9;11;20.0;TNReady;3rd - ELA;51.0;8.0;15.7;Head Start;4841 Summer Ave.;38122;Memphis;4841 Summer Ave. Memphis, TN 38122;35.1478973;-89.8994172;47157008600;47157008600;47157008600;2;5;9;34.153545577027884, -92.50896946646978
Oakshire Elementary Pre-K;DOE;4;36;40.0;TNReady;3rd - ELA;57.0;11.0;19.3;Head Start;1765 East Holmes Road;38116;Memphis;1765 East Holmes Road Memphis, TN 38116;35.0050593;-90.0043534;47157022130;47157022130;47157022130;3;12;8;34.15354516639528, -92.50896978104582
Oakshire Elementary Pre-K;DOE;20;20;40.0;TNReady;3rd - ELA;57.0;11.0;19.3;VPK;1765 East Holmes Road;38116;Memphis;1765 East Holmes Road Memphis, TN 38116;35.0050593;-90.0043534;47157022130;47157022130;47157022130;3;12;8;34.15354516639528, -92.50896978104582
Levi Elementary Pre-K;DOE;20;20;40.0;TNReady;3rd - ELA;60.0;9.0;15.0;Head Start;135 West Levi Road;38109;Memphis;135 West Levi Road Memphis, TN 38109;35.0420066;-90.0689409;47157022310;47157022310;47157022310;6;11;8;34.153545255866675, -92.50897000208234
Kingsbury Elementary School Pre-K;DOE;2;18;20.0;TNReady;3rd - ELA;60.0;10.0;16.7;VPK/Head Start;4055 Bayliss Road;38108;Memphis;4055 Bayliss Road Memphis, TN 38108;35.1690002;-89.9253392;47157008800;47157008800;47157008800;5;7;9;34.153545630132726, -92.5089695565598
Egypt Elementary Pre-K;DOE;0;20;20.0;TNReady;3rd - ELA;63.0;15.0;23.8;Fund 1;4160 Karen Cove;38128;Memphis;4160 Karen Cove Memphis, TN 38128;35.2394656;-89.9303598;47157020522;47157020523;47157020523;7;6;9;34.15354582234108, -92.50896958858371
Sherwood Elementary Pre-K;DOE;10;10;20.0;TNReady;3rd - ELA;66.0;11.0;16.7;VPK;1156 Robin Hood Lane;38111;Memphis;1156 Robin Hood Lane Memphis, TN 38111;35.1000406;-89.9375849;47157008000;47157008000;47157008000;4;10;9;34.1535454388994, -92.50896958178785
Bruce Elementary Pre-K;DOE;20;20;40.0;TNReady;3rd - ELA;69.0;12.0;17.4;VPK;581 S. Bellevue;38104;Memphis;581 S. Bellevue Memphis, TN 38104;35.1311735;-90.0225918;47157004600;47157004600;47157004600;6;8;8;34.15354550870771, -92.5089698688637
Bruce Elementary Pre-K;DOE;4;36;40.0;TNReady;3rd - ELA;69.0;12.0;17.4;VPK/Head Start;581 S. Bellevue;38104;Memphis;581 S. Bellevue Memphis, TN 38104;35.1311735;-90.0225918;47157004600;47157004600;47157004600;6;8;8;34.15354550870771, -92.5089698688637
Snowden School Pre-K;DOE;0;20;20.0;TNReady;3rd - ELA;128.0;49.0;38.3;Fund 1;1870 North Parkway;38112;Memphis;1870 North Parkway Memphis, TN 38112;35.1540346;-89.9962113;47157001600;47157001600;47157001600;5;7;9;34.15354557617894, -92.50896978691567
Richland Elementary Pre-K;DOE;20;20;40.0;TNReady;3rd - ELA;130.0;97.0;74.6;619;5440 Rich Road;38120;Memphis;5440 Rich Road Memphis, TN 38120;35.1367147;-89.8810705;47157009200;47157009200;47157009201;2;5;9;34.153545549728804, -92.50896940353131
Dexter Elementary Pre-K;DOE;0;40;40.0;TNReady;3rd - ELA;147.0;34.0;23.1;Fund 1;7105 Dexter Road;38016;Memphis;7105 Dexter Road Memphis, TN 38016;35.1672326;-89.825716;47157021123;47157021124;47157021124;;5;;34.15354564347417, -92.50896922774682
Dexter Elementary Pre-K;DOE;20;20;40.0;TNReady;3rd - ELA;147.0;34.0;23.1;VPK;7105 Dexter Road;38016;Memphis;7105 Dexter Road Memphis, TN 38016;35.1672326;-89.825716;47157021123;47157021124;47157021124;;5;;34.15354564347417, -92.50896922774682
Dexter Elementary Pre-K;DOE;4;36;40.0;TNReady;3rd - ELA;147.0;34.0;23.1;VPK/Head Start;7105 Dexter Road;38016;Memphis;7105 Dexter Road Memphis, TN 38016;35.1672326;-89.825716;47157021123;47157021124;47157021124;;5;;34.15354564347417, -92.50896922774682
Bailey Station Elementary School Pre-K;DOE;40;40;80.0;TNReady;3rd - ELA;170.0;110.0;64.7;VPK;3435 Bailey Station;38017;Collierville;3435 Bailey Station Collierville, TN 38017;35.0548342;-89.7244546;47157021530;47157021530;47157021530;;2;;34.15354535390832, -92.50896886924114
Kidz Palace Learning Center;DHS;9;9;18.0;;;;;;tuition;1189 Finley;38116;Memphis;1189 Finley Memphis, TN 38116;35.0294251;-90.0244106;47157022111;47157022111;47157022111;3;11;8;34.15354522951336, -92.50896985251799
Mid-South Gifted Academy;DOE;84;84;168.0;;;;;;tuition;121 E. South Street;38017;Collierville;121 E. South Street Collierville, TN 38017;35.0383992;-89.6650526;47157021620;47157021620;47157021620;;2;;34.1535453197085, -92.50896866980355
Creative Life Preparatory School;Unlicensed;10;10;20.0;;;;;;tuition;1222 Riverside Blvd;38106;Memphis;1222 Riverside Blvd Memphis, TN 38106;35.1146641;-90.0739428;47157005200;47157980200;47157980200;6;8;8;34.15354545408633, -92.50897003452593
South Parkway Kiddie Learning Center;DOE;27;33;60.0;;;;;;Head Start;1408 Gaither Pkwy;38106;Memphis;1408 Gaither Pkwy Memphis, TN 38106;35.10891106;-90.03105126;47157005900;47157005900;47157005900;4;8;8;34.1535454461487, -92.50896989186342
Midtown Montessori School;DOE;40;40;80.0;;;;;;tuition;1738 Galloway Ave.;38112;Memphis;1738 Galloway Ave. Memphis, TN 38112;35.1509992;-90.0017205;47157002600;47157002600;47157002600;5;7;9;34.15354556685411, -92.50896980441118
Binghampton Christian Academy;DOE;40;40;80.0;;;;;;tuition;175 N TILLMAN STREET;38111;Memphis;175 N TILLMAN STREET Memphis, TN 38111;35.1367144;-89.9622108;47157003000;47157003000;47157003000;5;7;9;34.15354553491607, -92.50896967102409
Learning Tree Daycare Ctr@ Bartlett, INC;DHS;12;12;24.0;;;;;;tuition;2780 Summer Oaks;38134;Bartlett;2780 Summer Oaks Bartlett, TN 38134;35.2017829;-89.8428252;47157020622;47157020622;47157020622;;3;;34.1535457350431, -92.50896929173669
Porter-Leath & University of Memphis;DHS;60;60;120.0;;;;;;tuition;2869 Park Ave;38114;Memphis;2869 Park Ave Memphis, TN 38114;35.1077819;-89.9666246;47157007900;47157007900;47157007900;4;9;8;34.153545454814896, -92.50896967922199
Parkway Village Elementary ELP;DOE;40;40;80.0;;;;;;tuition;3000 Claudette Road;38118;Memphis;3000 Claudette Road Memphis, TN 38118;35.0669197;-89.9244909;47157010610;47157010610;47157010610;4;12;9;34.15354535051506, -92.50896953134864
Kidazzle-Flying Start;DHS;34;34;68.0;;;;;;tuition;3194 Independent Drive;38118;Memphis;3194 Independent Drive Memphis, TN 38118;35.0671136;-89.9572704;47157010420;47157980100;47157980100;3;12;8;34.15354534506269, -92.50896963945443
Red Robin's Academy of Learning, INC;DOE;0;40;40.0;;;;;;F8M;3311 Kimball;38111;Memphis;3311 Kimball Memphis, TN 38111;35.0940288;-89.952315;47157008120;47157008120;47157008120;4;9;8;34.15354541973388, -92.50896962902809
Lil Daniel and Friends Learning Center;DHS;10;10;20.0;;;;;;tuition;3327 Park Avenue;38111;Memphis;3327 Park Avenue Memphis, TN 38111;35.1075507;-89.9516596;47157007900;47157007900;47157007900;4;9;8;34.15354545691306, -92.50896962983656
University Of Little Scholars S.T.E.A.M.;DHS;8;8;16.0;;;;;;tuition;3333 E. Shelby Dr.;38118;Memphis;3333 E. Shelby Dr. Memphis, TN 38118;35.0202573;-89.9528653;47157021900;47157021900;47157021900;3;12;8;34.153545217447544, -92.50896961464366
Greater Memphis Adventist Academy;Unlicensed;10;10;20.0;;;;;;tuition;3333 Old Brownsville Rd;38134;Memphis;3333 Old Brownsville Rd Memphis, TN 38134;35.2174539;-89.8846422;47157020651;47157020651;47157020651;1;6;9;34.15354577035913, -92.50896943303457
Ridgeway Early Learning Center;DOE;8;72;80.0;;;;;;VPK/Head Start;3435 Ridge Meadow Parkway;38115;Memphis;3435 Ridge Meadow Parkway Memphis, TN 38115;35.0540048;-89.8581424;47157021721;47157021721;47157021721;3;13;8;34.153545327230866, -92.50896930978367
Church of the Incarnation Preschool;DHS;45;45;90.0;;;;;;tuition;360 Bray Station Rd.;38017;Collierville;360 Bray Station Rd. Collierville, TN 38017;35.0489844;-89.7041218;47157021530;47157021530;47157021530;;2;;34.153545341587446, -92.50896880092611
Kids Academy Inc.;DHS;23;23;46.0;;;;;;tuition;3673 South Third Street;38109;Memphis;3673 South Third Street Memphis, TN 38109;35.0486324;-90.0629309;47157022310;47157022310;47157022310;6;11;8;34.15354527512314, -92.50896998372423
Memphis Heritage Christian School;Unlicensed;5;5;10.0;;;;;;tuition;3802 Gragg Ave;38108;Memphis;3802 Gragg Ave Memphis, TN 38108;35.1797466;-89.9330968;47157008900;47157008900;47157008900;7;6;9;34.15354565816929, -92.50896958449373
Roulhac's Preschool;DHS;12;12;24.0;;;;;;tuition;390 South Yates;38120;Memphis;390 South Yates Memphis, TN 38120;35.1204862;-89.87579;47157009600;47157009600;47157009600;5;10;9;34.15354550621524, -92.50896938255983
Shrine School Pre-K;DOE;60;60;120.0;;;;;;619;4259 Forest View Drive;38118;Memphis;4259 Forest View Drive Memphis, TN 38118;35.0593081;-89.9219699;47157010630;47157010630;47157010630;4;12;9;34.15354533011413, -92.5089695213664
TLC Learning Academy;DHS;6;6;12.0;;;;;;tuition;4364 Millbranch Road;38116;Memphis;4364 Millbranch Road Memphis, TN 38116;35.0294801;-90.0071041;47157022112;47157022112;47157022131;3;11;8;34.15354523282334, -92.50896979547625
Destination Education;DHS;11;11;22.0;;;;;;tuition;4744 Riverdale Rd;38141;Memphis;4744 Riverdale Rd Memphis, TN 38141;35.0188693;-89.8307247;47157021751;47157021751;47157021751;3;13;9;34.15354523593985, -92.50896921168156
St. Luke's UMC Day School;DHS;20;20;40.0;;;;;;tuition;480 S Highland St;38111-4302;Memphis;480 S Highland St Memphis, TN 38111-4302;35.1185756;-89.9452564;47157007300;47157007300;47157007300;5;10;9;34.15354548829795, -92.50896961114815
Memphis Childcare Academy;DHS;10;10;20.0;;;;;;tuition;4970 Raleigh LaGrange Rd.;38128;Memphis;4970 Raleigh LaGrange Rd. Memphis, TN 38128;35.1954829;-89.8977934;47157020542;47157020542;47157020542;1;6;9;34.153545707742396, -92.5089694715654
Faith Lutheran Preschool;DHS;40;40;80.0;;;;;;tuition;507 N Byhalia Rd;38017;Collierville;507 N Byhalia Rd Collierville, TN 38017;35.0529552;-89.6872767;47157021530;47157021530;47157021530;;2;;34.153545355545255, -92.50896874626527
Sharing God's Love Learning Center;DHS;2;2;4.0;;;;;;tuition;5095 Millbranch;38116;Memphis;5095 Millbranch Memphis, TN 38116;35.0094076;-90.007989;47157022120;47157022121;47157022121;3;11;8;34.153545177649036, -92.50896979398598
Shady Grove;DOE;2;18;20.0;;;;;;VPK;5360 Shady Grove Rd;38120;Memphis;5360 Shady Grove Rd Memphis, TN 38120;35.1236642;-89.884222;47157009600;47157009600;47157009600;5;10;9;34.15354551338595, -92.50896941105518
Creative Beginnings Learning Academy;DHS;10;10;20.0;;;;;;tuition;5421 Knight Arnold Road;38115;Memphis;5421 Knight Arnold Road Memphis, TN 38115;35.0614431;-89.8828496;47157010820;47157010820;47157010820;4;12;8;34.153545343106806, -92.50896939286845
Central Baptist School;DOE;40;40;80.0;;;;;;tuition;5470 Raleigh LaGrange Road;38134;Memphis;5470 Raleigh LaGrange Road Memphis, TN 38134;35.1851688;-89.881294;47157020621;47157020621;47157020621;1;6;9;34.15354568248641, -92.50896941490755
Sensational Enlightenment;DOE;40;40;80.0;;;;;;tuition;5960 KNIGHT ARNOLD ROAD EXT;38115;Memphis;5960 KNIGHT ARNOLD ROAD EXT Memphis, TN 38115;35.0611948;-89.8647152;47157021721;47157021721;47157021721;3;13;8;34.15354534573669, -92.50896933303078
St. Ann Catholic School - Bartlett;Unlicensed;18;18;36.0;;;;;;tuition;6529 Stage Rd, Bartlett, TN 38134;38134;Bartlett;6529 Stage Rd, Bartlett, TN 38134 Bartlett, TN 38134;35.203426;-89.8464705;47157020622;47157020622;47157020622;;3;;34.15354573888094, -92.50896930411481
Memphis Oral School for the Deaf;DOE;60;60;120.0;;;;;;tuition;7901 Poplar Avenue;38138;Germantown;7901 Poplar Avenue Germantown, TN 38138;35.0875526;-89.7995291;47157021341;47157021341;47157021341;;4;;34.15354542987516, -92.50896912392128
La Petite Academy @ Meadowvale;DHS;9;9;18.0;;;;;;tuition;8037 Meadowvale Lane;38125;Memphis;8037 Meadowvale Lane Memphis, TN 38125;35.0275012;-89.7952781;47157021510;47157021510;47157021547;;4;;34.15354526606801, -92.50896909672117
Cadence Academy Preschool;DOE;38;38;76.0;;;;;;tuition;8200 Macon Road;38018;Memphis;8200 Macon Road Memphis, TN 38018;35.1553181;-89.7896806;47157021135;47157021135;47157021135;2;4;9;34.15354561739822, -92.50896910633381
Tipton-Rosemark Academy;Unlicensed;10;10;20.0;;;;;;tuition;8696 Rosemark Rd;38053;Millington;8696 Rosemark Rd Millington, TN 38053;35.3640686;-89.7715617;47157020700;47157020700;47157020700;;1;;34.15354619282927, -92.50896909243873
Porter Leath Children's Early Head Start;DHS;19;19;38.0;;;;;;tuition;890 North Manassas St.;38107;Memphis;890 North Manassas St. Memphis, TN 38107;35.1650788;-90.0312327;47157002000;47157002000;47157002000;7;8;8;34.15354560005478, -92.50896990479475
Knowledge Quest @ College Park 21st CCLC;DOE;20;20;40.0;;;;;;F8M;990 College Park Drive;38126;Memphis;990 College Park Drive Memphis, TN 38126;35.1200968;-90.0330146;47157004800;47157011600;47157011600;6;8;8;34.15354547644711, -92.50896990079204
Memphis Business Academy Gmtwn Comm PreK;DOE;9;11;20.0;TNReady;3rd - ELA;22.0;2.0;9.1;Head Start;4442 S. Germantown Road;38125;Memphis;4442 S. Germantown Road Memphis, TN 38125;35.0271097;-89.8219791;47157021745;47157021745;47157021745;;13;;34.153545260120836, -92.5089691846596
Gardenview Elementary School Pre-K;DOE;18;22;40.0;TNReady;3rd - ELA;23.0;2.0;8.7;Head Start;4075 Hartz Road;38116;Memphis;4075 Hartz Road Memphis, TN 38116;35.0370955;-89.9973771;47157022022;47157022022;47157022026;3;11;8;34.15354525547057, -92.5089697650817
Dunbar Elementary School Pre-K;DOE;2;18;20.0;TNReady;3rd - ELA;33.0;6.0;18.2;VPK/Head Start;2606 Select Ave.;38114;Memphis;2606 Select Ave. Memphis, TN 38114;35.1067104;-89.9755135;47157006800;47157006800;47157006800;4;9;8;34.153545450255585, -92.5089697082905
Jackson Elementary Pre-K;DOE;10;10;20.0;TNReady;3rd - ELA;36.0;11.0;30.6;VPK;3925 Wales Avenue;38108;Memphis;3925 Wales Avenue Memphis, TN 38108;35.1844053;-89.9290723;47157008900;47157008900;47157008900;7;6;9;34.153545671672084, -92.50896957224923
Westside Elementary Pre-K;DOE;10;10;20.0;TNReady;3rd - ELA;40.0;6.0;15.0;Head Start;3347 Dawn Drive;38127;Memphis;3347 Dawn Drive Memphis, TN 38127;35.2171948;-90.0373404;47157009900;47157009901;47157009901;7;8;8;34.1535457417744, -92.50896993637335
Westside Elementary Pre-K;DOE;10;10;20.0;TNReady;3rd - ELA;40.0;6.0;15.0;VPK;3347 Dawn Drive;38127;Memphis;3347 Dawn Drive Memphis, TN 38127;35.2171948;-90.0373404;47157009900;47157009901;47157009901;7;8;8;34.1535457417744, -92.50896993637335
Sharpe Elementary Pre-K;DOE;10;10;20.0;TNReady;3rd - ELA;44.0;10.0;22.7;Head Start;3431 SHARPE;38111;Memphis;3431 SHARPE Memphis, TN 38111;35.0858593;-89.9481673;47157008200;47157008200;47157008200;4;10;8;34.153545398100846, -92.50896961356064
Sharpe Elementary Pre-K;DOE;2;18;20.0;TNReady;3rd - ELA;44.0;10.0;22.7;VPK/Head Start;3431 SHARPE;38111;Memphis;3431 SHARPE Memphis, TN 38111;35.0858593;-89.9481673;47157008200;47157008200;47157008200;4;10;8;34.153545398100846, -92.50896961356064
Geeter K-8 Elementary Pre-K;DOE;9;11;20.0;TNReady;3rd - ELA;45.0;;;Head Start;4649 Horn Lake Road;38109;Memphis;4649 Horn Lake Road Memphis, TN 38109;35.0216753;-90.0693285;47157022330;47157022330;47157022330;6;11;8;34.153545200073836, -92.50896999889584
Promise Academy @ Spring Hill Pre-K;DOE;20;20;40.0;TNReady;3rd - ELA;48.0;6.0;12.5;tuition;3796 Frayser-Raleigh Road;38128;Memphis;3796 Frayser-Raleigh Road Memphis, TN 38128;35.2243397;-89.9378221;47157020522;47157020524;47157020524;1;6;9;34.15354577952324, -92.50896960986314
Lucy Elementary School Pre-K;DOE;2;18;20.0;TNReady;3rd - ELA;50.0;7.0;14.0;VPK/Head Start;6269 AMHERST ROAD;38053;Memphis;6269 AMHERST ROAD Memphis, TN 38053;35.2974844;-89.9256769;47157020221;47157020221;47157020221;;1;;34.15354598220835, -92.50896958588538
Lucy Elementary School Pre-K;DOE;20;20;40.0;TNReady;3rd - ELA;50.0;7.0;14.0;Head Start;6269 AMHERST ROAD;38053;Memphis;6269 AMHERST ROAD Memphis, TN 38053;35.2974844;-89.9256769;47157020221;47157020221;47157020221;;1;;34.15354598220835, -92.50896958588538
Keystone Elementary Pre-K;DOE;9;11;20.0;TNReady;3rd - ELA;53.0;11.0;20.8;Head Start;4301 Old Allen Road;38128;Memphis;4301 Old Allen Road Memphis, TN 38128;35.2431139;-89.9533094;47157020521;47157020521;47157020521;7;6;9;34.153545828150605, -92.50896966504207
Evans Elementary School Pre-K;DOE;6;54;60.0;TNReady;3rd - ELA;56.0;11.0;19.6;VPK/Head Start;4949 Cottonwood Road;38118;Memphis;4949 Cottonwood Road Memphis, TN 38118;35.0686331;-89.8983663;47157010710;47157010710;47157010710;4;12;8;34.153545359979944, -92.50896944560067
Hanley;DOE;36;44;80.0;TNReady;3rd - ELA;56.0;6.0;10.7;Head Start;680 Hanley St.;38114;Memphis;680 Hanley St. Memphis, TN 38114;35.1130452;-89.9765941;47157006700;47157006700;47157006700;4;9;8;34.153545467420145, -92.50896971324386
Levi Elementary Pre-K;DOE;20;20;40.0;TNReady;3rd - ELA;60.0;9.0;15.0;VPK;135 West Levi Road;38109;Memphis;135 West Levi Road Memphis, TN 38109;35.0420066;-90.0689409;47157022310;47157022310;47157022310;6;11;8;34.153545255866675, -92.50897000208234
Cromwell Elementary School Pre-K;DOE;9;11;20.0;TNReady;3rd - ELA;60.0;9.0;15.0;Head Start;4989 Cromwell Rd;38118;Memphis;4989 Cromwell Rd Memphis, TN 38118;35.0455682;-89.8971722;47157010900;47157022600;47157022600;3;12;8;34.153545296983836, -92.50896943659957
Scenic Hills Elementary Pre-K;DOE;30;30;60.0;TNReady;3rd - ELA;62.0;7.0;11.3;VPK;3450 Scenic Hills Hwy.;38128;Memphis;3450 Scenic Hills Hwy. Memphis, TN 38128;35.2065973;-89.9603461;47157020511;47157020511;47157020511;7;7;8;34.153545726784856, -92.50896968022151
Sheffield Elementary Pre-K;DOE;4;36;40.0;TNReady;3rd - ELA;70.0;7.0;10.0;VPK/Head Start;4290 Chuck Avenue;38118;Memphis;4290 Chuck Avenue Memphis, TN 38118;35.058578;-89.9205052;47157010630;47157010630;47157010630;4;12;9;34.1535453283805, -92.50896951637745
William H. Brewster Elementary Pre-K;DOE;20;20;40.0;TNReady;3rd - ELA;72.0;14.0;19.4;Head Start;2605 Sam Cooper Blvd;38112;Memphis;2605 Sam Cooper Blvd Memphis, TN 38112;35.1462625;-89.9737585;47157002700;47157002700;47157002700;5;7;9;34.1535455589766, -92.5089697111896
Lowrance School Pre-K;DOE;30;30;60.0;TNReady;3rd - ELA;73.0;9.0;12.3;VPK;7740 Lowrance Road;38125;Memphis;7740 Lowrance Road Memphis, TN 38125;35.0365961;-89.805421;47157021745;47157021745;47157021745;;13;;34.1535452891429, -92.50896913215601
Southwind Elementary Pre-K;DOE;0;60;60.0;TNReady;3rd - ELA;77.0;62.0;80.5;F8M;8155 Meadowvale Drive;38125;Memphis;8155 Meadowvale Drive Memphis, TN 38125;35.0259021;-89.7910663;47157021510;47157021510;47157021547;;4;;34.15354526245421, -92.50896908248514
Fox Meadows Elementary School Pre-K;DOE;18;22;40.0;TNReady;3rd - ELA;79.0;34.0;43.0;Head Start;2960 EMERALD;38115;Memphis;2960 EMERALD Memphis, TN 38115;35.0680919;-89.8790881;47157010720;47157010720;47157010720;4;12;8;34.153545362015855, -92.50896938192795
Berclair Elementary School Pre-K;DOE;0;40;40.0;TNReady;3rd - ELA;82.0;17.0;20.7;F8M;810 N. PERKINS;38122;Memphis;810 N. PERKINS Memphis, TN 38122;35.1533116;-89.9069235;47157008700;47157008700;47157008700;2;5;9;34.15354559049664, -92.50896949240445
Hickory Ridge Elementary Pre-K;DOE;20;20;40.0;TNReady;3rd - ELA;89.0;20.0;22.5;Head Start;3890 Hickory Hill Road;38115;Memphis;3890 Hickory Hill Road Memphis, TN 38115;35.0415841;-89.8641879;47157021732;47157021732;47157021757;3;13;8;34.153545292085795, -92.50896932698637
Schilling Farms Elementary School Pre-K;DOE;20;20;40.0;TNReady;3rd - ELA;98.0;73.0;74.5;619;935 Colbert Street South;38017;Collierville;935 Colbert Street South Collierville, TN 38017;35.0341065;-89.7032253;47157021520;47157021520;47157021545;;2;;34.153545300975175, -92.50896879470379
Kate Bond Elementary Pre-K;DOE;20;20;40.0;TNReady;3rd - ELA;101.0;35.0;34.7;Head Start;2727 Kate Bond Road;38133;Memphis;2727 Kate Bond Road Memphis, TN 38133;35.199362;-89.8044325;47157021113;47157021113;47157021113;1;5;9;34.15354573541663, -92.50896916463701
Tara Oaks Elementary School Pre-K;DOE;20;20;40.0;TNReady;3rd - ELA;101.0;72.0;71.3;tuition;600 Harpers Ferry Road;38017;Collierville;600 Harpers Ferry Road Collierville, TN 38017;35.0685066;-89.6481725;47157021613;47157021613;47157021613;;2;;34.1535454053054, -92.50896862076634
Westhaven Elementary School Pre-K;DOE;10;10;20.0;TNReady;3rd - ELA;103.0;11.0;10.7;VPK;4585 Hodge Road;38109;Memphis;4585 Hodge Road Memphis, TN 38109;35.0240056;-90.0498656;47157022322;47157022322;47157022322;6;11;8;34.15354521001339, -92.50896993524474
Cordova Elementary School Pre-K;DOE;0;20;20.0;TNReady;3rd - ELA;103.0;34.0;33.0;F8M;750 Sanga Road;38016;Memphis;750 Sanga Road Memphis, TN 38016;35.1463457;-89.7691565;47157021137;47157021137;47157021143;2;4;9;34.15354559655412, -92.50896903670247
Germanshire Elementary Pre-K;DOE;2;18;20.0;TNReady;3rd - ELA;104.0;37.0;35.6;SPED;3965 Germantown Road;38125;Memphis;3965 Germantown Road Memphis, TN 38125;35.0408021;-89.8272724;47157021744;47157021744;47157021744;2;13;9;34.15354529668138, -92.50896920511641
Treadwell Elementary Pre-K;DOE;30;30;60.0;TNReady;3rd - ELA;115.0;10.0;8.7;Head Start;3538 Given Ave.;38122;Memphis;3538 Given Ave. Memphis, TN 38122;35.1573721;-89.9427658;47157001200;47157001200;47157001200;5;7;9;34.15354559508235, -92.5089696114563
Shelby Oaks Elementary Pre-K;DOE;0;40;40.0;TNReady;3rd - ELA;115.0;31.0;27.0;F8M;6053 Summer Avenue;38134;Memphis;6053 Summer Avenue Memphis, TN 38134;35.1772409;-89.8605148;47157021111;47157021111;47157021111;1;5;9;34.15354566455156, -92.50896934466459
White Station Elementary School Pre-K;DOE;0;40;40.0;TNReady;3rd - ELA;117.0;39.0;33.3;F8M;4840 Chickasaw Road;38117;Memphis;4840 Chickasaw Road Memphis, TN 38117;35.1397358;-89.9009459;47157008600;47157008600;47157008600;5;5;9;34.15354555438058, -92.50896946971731
Belle Forest Community School Pre-K;DOE;0;40;40.0;TNReady;3rd - ELA;145.0;19.0;13.1;F8M;3135 RIDGEWAY ROAD;38115;Memphis;3135 RIDGEWAY ROAD Memphis, TN 38115;35.0629043;-89.858051;47157021721;47157021721;47157021721;3;13;8;34.15354535163845, -92.50896931143649
Arlington Elementary School Pre-K;DOE;60;60;120.0;TNReady;3rd - ELA;147.0;112.0;76.2;619;11825 Douglass Street;38002;Arlington;11825 Douglass Street Arlington, TN 38002;35.2854558;-89.6678083;47157020900;47157020900;47157020901;;1;;34.15354599631468, -92.50896873313631
Dexter Elementary Pre-K;DOE;20;20;40.0;TNReady;3rd - ELA;147.0;34.0;23.1;Head Start;7105 Dexter Road;38016;Memphis;7105 Dexter Road Memphis, TN 38016;35.1672326;-89.825716;47157021123;47157021124;47157021124;;5;;34.15354564347417, -92.50896922774682
Donelson Elementary School Pre-K;DOE;40;40;80.0;TNReady;3rd - ELA;156.0;121.0;77.6;619;12140 Donelson Farms Parkway;38002;Arlington;12140 Donelson Farms Parkway Arlington, TN 38002;35.2533337;-89.6585396;47157020820;47157020820;47157020837;;1;;34.15354590996944, -92.50896869552717
First Class Montessori School I;DOE;40;40;80.0;;;;;;tuition;1336 Peabody;38104;Memphis;1336 Peabody Memphis, TN 38104;35.1329106;-90.0170346;47157003600;47157003600;47157003600;6;8;8;34.15354551448304, -92.50896985092487
SCS Douglass Headstart;DOE;160;160;320.0;;;;;;Head Start;1600 Ash Street;38108;Memphis;1600 Ash Street Memphis, TN 38108;35.1761481;-89.9529429;47157009000;47157011100;47157011100;7;7;8;34.153545644684044, -92.50896964912964
Immaculate Conception Catholic Preschool;DOE;40;40;80.0;;;;;;tuition;1669 Central Avenue;38104;Memphis;1669 Central Avenue Memphis, TN 38104;35.1259306;-90.006069;47157003300;47157003300;47157003300;4;9;9;34.153545497354656, -92.50896981324225
Paideia Preparatory Academy LLC;DHS;12;12;24.0;;;;;;tuition;1679 BONNIE LANE, STE. 10;38016;Cordova;1679 BONNIE LANE, STE. 10 Cordova, TN 38016;35.1714267;-89.7912435;47157021135;47157021135;47157021135;2;2;9;34.153545661261845, -92.50896911502326
Hutchison Early Childhood Center;DOE;40;40;80.0;;;;;;tuition;1740 Ridgeway Road;38119;Memphis;1740 Ridgeway Road Memphis, TN 38119;35.0918123;-89.8552788;47157021320;47157021320;47157021320;2;10;9;34.15354543137282, -92.50896930864499
Grace St. Luke's Episcopal Preschool;DOE;40;40;80.0;;;;;;tuition;1760 Peabody Avenue;38104;Memphis;1760 Peabody Avenue Memphis, TN 38104;35.1325163;-90.00326;47157003200;47157003200;47157003200;4;9;9;34.153545515916896, -92.50896980542797
First Baptist Day School;DHS;60;60;120.0;;;;;;tuition;200 E. Parkway North;38112;Memphis;200 E. Parkway North Memphis, TN 38112;35.1416163;-89.9818912;47157002700;47157002700;47157002700;5;7;9;34.153545544758124, -92.50896973698023
Germantown United Methodist Preschool;DHS;35;35;70.0;;;;;;tuition;2331 S. Germantown Road;38138;Germantown;2331 S. Germantown Road Germantown, TN 38138;35.0857297;-89.8108727;47157021430;47157021430;47157021430;;4;;34.15354542280839, -92.50896916091712
Westminister Academy;DOE;40;40;80.0;;;;;;tuition;2500 RIDGEWAY ROAD;38115;Memphis;2500 RIDGEWAY ROAD Memphis, TN 38115;35.0818291;-89.857921;47157021331;47157021331;47157021331;2;10;9;34.15354540352948, -92.50896931516338
A Parent's Choice Learning Academy;DHS;2;2;4.0;;;;;;tuition;2501 Jackson;38108;Memphis;2501 Jackson Memphis, TN 38108;35.1763676;-89.9673469;47157000800;47157000800;47157000800;7;7;8;34.153545642656205, -92.50896969666307
Westminster Academy;Unlicensed;22;22;44.0;;;;;;tuition;2520 Ridgeway Rd;38119;Memphis;2520 Ridgeway Rd Memphis, TN 38119;35.0813141;-89.8580338;47157021331;47157021331;47157021331;2;10;9;34.15354540209742, -92.50896931542216
Great Expectations Prep Academy LLC;DHS;10;10;20.0;;;;;;tuition;2759 Colony Park Dr.;38118;Memphis;2759 Colony Park Dr. Memphis, TN 38118;35.0729868;-89.9223668;47157010610;47157010610;47157010610;4;12;9;34.15354536753094, -92.50896952567838
Lord's Tabernacle Christian Academy;DOE;40;40;80.0;;;;;;tuition;2818 MIDLAND AVE.;38111;Memphis;2818 MIDLAND AVE. Memphis, TN 38111;35.1200833;-89.9680031;47157007100;47157007100;47157007100;5;9;9;34.15354548827776, -92.50896968646758
New Hope Christian Academy Preschool;DOE;40;40;80.0;;;;;;tuition;3000 University Dr.;38127;Memphis;3000 University Dr. Memphis, TN 38127;35.2077247;-89.9897494;47157010220;47157010220;47157010220;7;7;8;34.153545724507254, -92.50896977740207
New Hope Christian Academy;Unlicensed;80;80;160.0;;;;;;tuition;3000 University St;38127;Memphis;3000 University St Memphis, TN 38127;35.2077247;-89.9897494;47157010220;47157010220;47157010220;7;7;8;34.153545724507254, -92.50896977740207
Global Children Services, Inc. @ Walnut;DHS;10;10;20.0;;;;;;tuition;3000 Walnut Grove Road;38111;Memphis;3000 Walnut Grove Road Memphis, TN 38111;35.1360329;-89.9619354;47157003000;47157003000;47157003000;5;7;9;34.15354553309855, -92.50896966996655
First Star Learning Academy;DHS;10;10;20.0;;;;;;tuition;3079 Crystal;38112;Memphis;3079 Crystal Memphis, TN 38112;35.1433749;-89.9673469;47157002800;47157002800;47157002800;5;7;9;34.153545552232956, -92.50896968941862
La Petite Academy @ Walnut Bend;DHS;38;38;76.0;;;;;;tuition;330 S. Walnut Bend;38018;Cordova;330 S. Walnut Bend Cordova, TN 38018;35.1211678;-89.7988668;47157021133;47157021140;47157021140;2;4;9;34.15354552212541, -92.50896912911904
Future Leaders;DOE;27;33;60.0;;;;;;Head Start;3428 University;38127;Memphis;3428 University Memphis, TN 38127;35.2189248;-89.9893252;47157010210;47157010210;47157010210;7;7;8;34.15354575528086, -92.50896977846291
Global Preschool Academy;DHS;10;10;20.0;;;;;;tuition;3525 HICKORY HILL ROAD;38115;Memphis;3525 HICKORY HILL ROAD Memphis, TN 38115;35.0533202;-89.8669869;47157010820;47157010820;47157010820;4;12;8;34.15354532374003, -92.50896933879073
Klassy Kids Academy #2, Inc.;DHS;18;18;36.0;;;;;;tuition;3750 Ridgeway Road;38115;Memphis;3750 Ridgeway Road Memphis, TN 38115;35.0453346;-89.8563976;47157021732;47157021732;47157021758;3;13;8;34.15354530378691, -92.50896930212785
The Learning Experience @ Germantown;DHS;35;35;70.0;;;;;;tuition;3750 S FOREST HILL IRENE;38125;Germantown;3750 S FOREST HILL IRENE Germantown, TN 38125;35.0274115;-89.7595625;47157021520;47157021520;47157021546;;4;;34.15354527234195, -92.5089689789589
Little Heritage Enrichment Center Inc.;DHS;10;10;20.0;;;;;;tuition;3802 Gragg Avenue;38108;Memphis;3802 Gragg Avenue Memphis, TN 38108;35.1797466;-89.9330968;47157008900;47157008900;47157008900;7;6;9;34.15354565816929, -92.50896958449373
The Goddard School-Collierville;DHS;38;38;76.0;;;;;;tuition;509 E Winchester Blvd.;38017;Collierville;509 E Winchester Blvd. Collierville, TN 38017;35.0374857;-89.6922932;47157021520;47157021520;47157021545;;2;;34.15354531223218, -92.50896875940626
Woodland Presbyterian Preschool;DOE;40;40;80.0;;;;;;tuition;5217 Park Avenue;38119;Memphis;5217 Park Avenue Memphis, TN 38119;35.1043817;-89.8883796;47157009500;47157009500;47157009501;2;10;9;34.15354545977937, -92.5089694205274
Dream Academy Learning Center;DHS;10;10;20.0;;;;;;tuition;5340 QUINCE ROAD;38119;Memphis;5340 QUINCE ROAD Memphis, TN 38119;35.0913171;-89.8839221;47157009500;47157009500;47157009502;2;10;9;34.15354542478686, -92.50896940296379
Shady Grove;DOE;60;60;120.0;;;;;;Model District;5360 Shady Grove Rd;38120;Memphis;5360 Shady Grove Rd Memphis, TN 38120;35.1236642;-89.884222;47157009600;47157009600;47157009600;5;10;9;34.15354551338595, -92.50896941105518
Shady Grove;DOE;6;54;60.0;;;;;;VPK/Head Start;5360 Shady Grove Rd;38120;Memphis;5360 Shady Grove Rd Memphis, TN 38120;35.1236642;-89.884222;47157009600;47157009600;47157009600;5;10;9;34.15354551338595, -92.50896941105518
Tipton Tots Daycare & Pre-K;DHS;15;15;30.0;;;;;;tuition;548 Munford Avenue;38058;Munford;548 Munford Avenue Munford, TN 38058;35.4468859;-89.7981285;;;47167040304;;;;34.15354641495734, -92.50896919820556
Kim's Kid Corral Christian Pre-School;DHS;10;10;20.0;;;;;;tuition;5700 Cleaves Circle;38002;Arlington;5700 Cleaves Circle Arlington, TN 38002;35.2821005;-89.6905144;47157020900;47157020900;47157020902;;1;;34.15354598297386, -92.5089688072541
Kindercare Learning Center @ Bartlett;DHS;12;12;24.0;;;;;;tuition;6000 Bartlett Center Dr;38134;Bartlett;6000 Bartlett Center Dr Bartlett, TN 38134;35.2064843;-89.8635543;47157020652;47157020652;47157020652;;3;;34.153545744144225, -92.50896936110603
Advent Arlington Presbyterian Preschool;DHS;32;32;64.0;;;;;;tuition;6176 Chester Street;38002;Arlington;6176 Chester Street Arlington, TN 38002;35.2948275;-89.6602019;47157020900;47157020900;47157020902;;1;;34.153546023388266, -92.50896871011834
St. Mary's Episcopal Preschool;DOE;40;40;80.0;;;;;;tuition;71 North Perkins Road;38117;Memphis;71 North Perkins Road Memphis, TN 38117;35.1329557;-89.9094611;47157008600;47157008600;47157008600;5;5;9;34.1535455342439, -92.50896949630037
Maria Montessori School;Unlicensed;7;7;14.0;;;;;;tuition;740 Harbor Bend Rd;38103;Memphis;740 Harbor Bend Rd Memphis, TN 38103;35.1613908;-90.0529478;47157000100;47157000100;47157000100;7;8;8;34.15354558598302, -92.50896997557248
Briarcrest Christian Preschool @ Eads;DOE;40;40;80.0;;;;;;tuition;76 South Houston Levee Rd.;38028;Eads;76 South Houston Levee Rd. Eads, TN 38028;35.1227137;-89.7313202;47157021020;47157021020;47157021020;;2;;34.153545538692704, -92.50896890677959
Freedom Prep Academy Pre-K @ Westwood;DOE;60;60;120.0;;;;;;F8M;778 Parkrose Rd.;38109;Memphis;778 Parkrose Rd. Memphis, TN 38109;35.0259205;-90.0904294;47157022330;47157022330;47157022330;6;11;8;34.153545207856745, -92.5089700693907
The Learning Experience @ Collierville;DHS;15;15;30.0;;;;;;tuition;780 E WINCHESTER ROAD;38017;Collierville;780 E WINCHESTER ROAD Collierville, TN 38017;35.0385727;-89.6985492;47157021520;47157021520;47157021544;;2;;34.15354531406932, -92.5089687802689
Cornerstone Learning Center;DHS;45;45;90.0;;;;;;tuition;8180 Sedgwick Way;38125-1058;Memphis;8180 Sedgwick Way Memphis, TN 38125-1058;35.060098;-89.7900914;47157021342;47157021342;47157021355;2;4;9;34.15354535635303, -92.50896908677986
Elite Preparatory Academy;DHS;9;9;18.0;;;;;;tuition;850 S. LAUDERDALE;38126;Memphis;850 S. LAUDERDALE Memphis, TN 38126;35.1240491;-90.0442049;47157004900;47157011600;47157011600;6;8;8;34.15354548523642, -92.5089699385506
YMCA Grace;DOE;9;11;20.0;;;;;;Head Start;8601 Trinity Road;38018;Cordova;8601 Trinity Road Cordova, TN 38018;35.14154159;-89.77724499;47157021137;47157021137;47157021144;2;4;9;34.15354558191093, -92.50896906231269
First Assembly Christian Pre-K & Jr-K;DOE;18;18;36.0;;;;;;tuition;8650 Walnut Grove Road;38018;Memphis;8650 Walnut Grove Road Memphis, TN 38018;35.1285656;-89.7739569;47157021137;47157021137;47157021144;2;4;9;34.153545546947804, -92.50896904862368
Greater Faith Tabernacle Institute for Success;;;;;;;;;;;;;;;;;;;;;;;
Countrywood KinderCare;DHS;12;12;24.0;;;;;;tuition;9434 U.S. Hwy 64;38002;Lakeland;9434 U.S. Hwy 64 Lakeland, TN 38002;35.2052691;-89.7478603;47157020830;47157020831;47157020837;;3;;34.15354576193334, -92.50896897943419
Germantown Baptist Church Learning Ctr;DOE;60;60;120.0;;;;;;tuition;9450 Poplar Avenue;38139;Germantown;9450 Poplar Avenue Germantown, TN 38139;35.0656528;-89.7473683;47157021353;47157021353;47157021356;;4;;34.153545379376084, -92.50896894715558
Caldwell-Guthrie;DOE;0;20;20.0;;;;;;Fund 1;951 Chelsea Ave;38107;Memphis;951 Chelsea Ave Memphis, TN 38107;35.16753004;-90.02515833;47157001900;47157001900;47157001900;7;7;8;34.153545607881746, -92.50896988530779
Knowledge Quest Early Childhood Academy;DHS;12;12;24.0;;;;;;tuition;990 College Park Suite 103;38126;Memphis;990 College Park Suite 103 Memphis, TN 38126;35.1200968;-90.0330146;47157004800;47157011600;47157011600;6;8;8;34.15354547644711, -92.50896990079204
La Petite Academy Coleman Com Part Pre-K;DOE;2;18;20.0;;;;;;VPK;2857 Coleman Rd.;38128;Memphis;2857 Coleman Rd. Memphis, TN 38128;35.2031814;-89.9138975;47157020542;47157020542;47157020542;1;6;9;34.153545725901964, -92.50896952634572
Springdale Elementary Pre-K;DOE;10;10;20.0;TNReady;3rd - ELA;31.0;19.0;61.3;VPK;880 N. Hollywood St.;38108;Memphis;880 N. Hollywood St. Memphis, TN 38108;35.1600896;-89.9752576;47157000900;47157000900;47157000900;5;7;9;34.15354559659893, -92.50896971916777
Delano Elementary Pre-K;DOE;9;11;20.0;TNReady;3rd - ELA;35.0;17.0;48.6;Head Start;1716 Delano Ave.;38127;Memphis;1716 Delano Ave. Memphis, TN 38127;35.1994198;-90.0057401;47157010120;47157010120;47157010120;7;8;8;34.1535456988269, -92.50896982829457
Hamilton School Pre-K;DOE;2;18;20.0;TNReady;3rd - ELA;40.0;5.0;12.5;VPK;1478 Wilson St;38106;Memphis;1478 Wilson St Memphis, TN 38106;35.105558;-90.0169062;47157006000;47157006000;47157006000;4;9;8;34.15354543954106, -92.50896984449555
Westside Elementary Pre-K;DOE;2;18;20.0;TNReady;3rd - ELA;40.0;6.0;15.0;VPK/Head Start;3347 Dawn Drive;38127;Memphis;3347 Dawn Drive Memphis, TN 38127;35.2171948;-90.0373404;47157009900;47157009901;47157009901;7;8;8;34.1535457417744, -92.50896993637335
Oak Forest Elementary School Pre-K;DOE;0;40;40.0;TNReady;3rd - ELA;44.0;23.0;52.3;F8M;7440 Nonconnah View;38119;Memphis;7440 Nonconnah View Memphis, TN 38119;35.0617324;-89.8150855;47157021332;47157021334;47157021334;2;13;9;34.15354535626985, -92.50896916953606
Oak Forest Elementary School Pre-K;DOE;0;20;20.0;TNReady;3rd - ELA;44.0;23.0;52.3;Fund 1;7440 Nonconnah View;38119;Memphis;7440 Nonconnah View Memphis, TN 38119;35.0617324;-89.8150855;47157021332;47157021334;47157021334;2;13;9;34.15354535626985, -92.50896916953606
Newberry Elementary School Pre-K;DOE;0;20;20.0;TNReady;3rd - ELA;46.0;25.0;54.3;Fund 1;5540 Newberry Road;38115;Memphis;5540 Newberry Road Memphis, TN 38115;35.0546554;-89.8787582;47157010820;47157010820;47157010820;4;12;8;34.15354532525062, -92.50896937789003
Cherokee Elementary Pre-K;DOE;20;20;40.0;TNReady;3rd - ELA;48.0;12.0;25.0;Head Start;3061 KIMBALL AVENUE;38114;Memphis;3061 KIMBALL AVENUE Memphis, TN 38114;35.0941172;-89.9601273;47157008120;47157008120;47157008120;4;9;8;34.15354541855004, -92.50896965480209
Cherokee Elementary Pre-K;DOE;20;20;40.0;TNReady;3rd - ELA;48.0;12.0;25.0;VPK;3061 KIMBALL AVENUE;38114;Memphis;3061 KIMBALL AVENUE Memphis, TN 38114;35.0941172;-89.9601273;47157008120;47157008120;47157008120;4;9;8;34.15354541855004, -92.50896965480209
Winridge Elementary Pre-K;DOE;20;20;40.0;TNReady;3rd - ELA;50.0;20.0;40.0;619;3500 Ridgeway Road;38115;Memphis;3500 Ridgeway Road Memphis, TN 38115;35.0519808;-89.8559131;47157021723;47157021726;47157021756;3;13;8;34.15354532209062, -92.50896930198996
Douglass School Pre-K;DOE;72;88;160.0;TNReady;3rd - ELA;53.0;9.0;17.0;Head Start;1650 Ash St.;38108;Memphis;1650 Ash St. Memphis, TN 38108;35.1775656;-89.9531982;47157009000;47157011100;47157011100;7;7;8;34.15354564852237, -92.50896965028252
Getwell Elementary School Pre-K;DOE;30;30;60.0;TNReady;3rd - ELA;57.0;13.0;22.8;VPK;2795 Getwell Road;38118;Memphis;2795 Getwell Road Memphis, TN 38118;35.0729528;-89.9334371;47157010500;47157010500;47157010500;3;12;8;34.153545365416896, -92.50896956216604
Sea Isle Elementary Pre-K;DOE;2;18;20.0;TNReady;3rd - ELA;58.0;15.0;25.9;SPED;5250 SEA ISLE ROAD;38117;Memphis;5250 SEA ISLE ROAD Memphis, TN 38117;35.0950892;-89.8883365;47157009500;47157009500;47157009501;2;10;9;34.15354543431923, -92.50896941834489
Sea Isle Elementary Pre-K;DOE;2;18;20.0;TNReady;3rd - ELA;58.0;15.0;25.9;VPK;5250 SEA ISLE ROAD;38117;Memphis;5250 SEA ISLE ROAD Memphis, TN 38117;35.0950892;-89.8883365;47157009500;47157009500;47157009501;2;10;9;34.15354543431923, -92.50896941834489
Raleigh-Bartlett Meadows Elem Pre-K;DOE;9;11;20.0;TNReady;3rd - ELA;59.0;6.0;10.2;Head Start;5195 Twin Woods Avenue;38134;Memphis;5195 Twin Woods Avenue Memphis, TN 38134;35.1956499;-89.890077;47157020621;47157020621;47157020621;1;6;9;34.153545709608714, -92.50896944616363
Kingsbury Elementary School Pre-K;DOE;9;11;20.0;TNReady;3rd - ELA;60.0;10.0;16.7;Head Start;4055 Bayliss Road;38108;Memphis;4055 Bayliss Road Memphis, TN 38108;35.1690002;-89.9253392;47157008800;47157008800;47157008800;5;7;9;34.153545630132726, -92.5089695565598
Kingsbury Elementary School Pre-K;DOE;2;18;20.0;TNReady;3rd - ELA;60.0;10.0;16.7;SPED;4055 Bayliss Road;38108;Memphis;4055 Bayliss Road Memphis, TN 38108;35.1690002;-89.9253392;47157008800;47157008800;47157008800;5;7;9;34.153545630132726, -92.5089695565598
Cromwell Elementary School Pre-K;DOE;20;20;40.0;TNReady;3rd - ELA;60.0;9.0;15.0;VPK;4989 Cromwell Rd;38118;Memphis;4989 Cromwell Rd Memphis, TN 38118;35.0455682;-89.8971722;47157010900;47157022600;47157022600;3;12;8;34.153545296983836, -92.50896943659957
Sherwood Elementary Pre-K;DOE;2;18;20.0;TNReady;3rd - ELA;66.0;11.0;16.7;VPK/Head Start;1156 Robin Hood Lane;38111;Memphis;1156 Robin Hood Lane Memphis, TN 38111;35.1000406;-89.9375849;47157008000;47157008000;47157008000;4;10;9;34.1535454388994, -92.50896958178785
A.B. Hill Elementary School Pre-K;DOE;40;0;40.0;TNReady;3rd - ELA;66.0;;;F8M;345 E. Olive Street;38016;Memphis;345 E. Olive Street Memphis, TN 38016;35.1098551;-90.0506066;47157005800;47157005800;47157005800;6;8;8;34.15354544516625, -92.50896995653822
A.B. Hill Elementary School Pre-K;DOE;4;36;40.0;TNReady;3rd - ELA;66.0;;;SPED;345 E. Olive Street;38016;Memphis;345 E. Olive Street Memphis, TN 38016;35.1098551;-90.0506066;47157005800;47157005800;47157005800;6;8;8;34.15354544516625, -92.50896995653822
Ford Road Elementary School Pre-K;DOE;0;40;40.0;TNReady;3rd - ELA;69.0;8.0;11.6;Fund 1;3336 Ford Road;38109;Memphis;3336 Ford Road Memphis, TN 38109;35.0577292;-90.0785184;47157022220;47157022220;47157022220;6;11;8;34.153545297209334, -92.50897003710854
Robert R. Church Elementary Pre-K;DOE;18;22;40.0;TNReady;3rd - ELA;71.0;15.0;21.1;Head Start;4100 Millbranch Road;38116;Memphis;4100 Millbranch Road Memphis, TN 38116;35.0373252;-90.0055943;47157022021;47157022024;47157022024;6;11;8;34.153545254600076, -92.50896979222155
Robert R. Church Elementary Pre-K;DOE;10;10;20.0;TNReady;3rd - ELA;71.0;15.0;21.1;VPK;4100 Millbranch Road;38116;Memphis;4100 Millbranch Road Memphis, TN 38116;35.0373252;-90.0055943;47157022021;47157022024;47157022024;6;11;8;34.153545254600076, -92.50896979222155
KIPP Memphis Collegiate Elementary School;DOE;40;40;80.0;TNReady;3rd - ELA;72.0;19.0;26.4;tuition;230 Henry Ave;38107-2483;Memphis;230 Henry Ave Memphis, TN 38107-2483;35.1667205;-90.0405303;47157000200;47157000200;47157000200;7;8;8;34.15354560285693, -92.50896993580635
Brownsville Road Elementary Pre-K;DOE;2;18;20.0;TNReady;3rd - ELA;72.0;29.0;40.3;VPK;5292 Banbury Street;38134;Memphis;5292 Banbury Street Memphis, TN 38134;35.1927931;-89.8692203;47157020621;47157020621;47157020621;;3;;34.153545705586374, -92.50896937677868
Oakhaven Elementary School Pre-K;DOE;0;20;20.0;TNReady;3rd - ELA;78.0;19.0;24.4;Fund 1;3795 Bishop Bridge Road;38118;Memphis;3795 Bishop Bridge Road Memphis, TN 38118;35.0450903;-89.9586687;47157011010;47157011010;47157011010;3;12;8;34.15354528444804, -92.50896963922834
Crump Elementary Pre-K;DOE;30;30;60.0;TNReady;3rd - ELA;79.0;16.0;20.3;VPK;4405 Crump Road;38141;Memphis;4405 Crump Road Memphis, TN 38141;35.0285626;-89.8614888;47157021741;47157021741;47157021759;3;13;8;34.15354525689041, -92.50896931522911
Ross Elementary School Pre-K;DOE;0;20;20.0;TNReady;3rd - ELA;79.0;24.0;30.4;Fund 1;4890 Ross Road;38141;Memphis;4890 Ross Road Memphis, TN 38141;35.0160743;-89.8363827;47157021754;47157021754;47157021754;3;13;8;34.153545227246724, -92.5089692297204
Willow Oaks Elementary School Pre-K;DOE;0;20;20.0;TNReady;3rd - ELA;81.0;28.0;34.6;Fund 1;4417 Willow Rd.;38117;Memphis;4417 Willow Rd. Memphis, TN 38117;35.0851734;-89.9162158;47157009700;47157009700;47157009700;5;10;9;34.153545402053666, -92.50896950807646
Holmes Road Elementary Pre-K;DOE;0;40;40.0;TNReady;3rd - ELA;83.0;17.0;20.5;F8M;1083 Holmes Road;38116;Memphis;1083 Holmes Road Memphis, TN 38116;35.0052494;-90.0298824;47157022130;47157022130;47157022130;3;12;8;34.153545162256066, -92.50896986524828
Hickory Ridge Elementary Pre-K;DOE;4;36;40.0;TNReady;3rd - ELA;89.0;20.0;22.5;VPK/Head Start;3890 Hickory Hill Road;38115;Memphis;3890 Hickory Hill Road Memphis, TN 38115;35.0415841;-89.8641879;47157021732;47157021732;47157021757;3;13;8;34.153545292085795, -92.50896932698637
Lucie E. Campbell Elementary Pre-K;DOE;30;30;60.0;TNReady;3rd - ELA;91.0;;;VPK;3232 Birchfield Drive;38127;Memphis;3232 Birchfield Drive Memphis, TN 38127;35.2144137;-89.9691698;47157010220;47157010220;47157010220;1;6;9;34.15354574659658, -92.50896971102665
Sycamore Elementary School Pre-K;DOE;20;20;40.0;TNReady;3rd - ELA;92.0;54.0;58.7;tuition;1155 Sycamore Road;38017;Collierville;1155 Sycamore Road Collierville, TN 38017;35.0123255;-89.6815474;47157021520;47157021520;47157021543;;2;;34.153545245237105, -92.50896871845627
Oak Elementary Pre-K;DOE;19;19;38.0;TNReady;3rd - ELA;99.0;52.0;52.5;619 blended;3573 Oak Rd;38135;Bartlett;3573 Oak Rd Bartlett, TN 38135;35.2240624;-89.8275808;47157020631;47157020633;47157020633;;3;;34.15354579888747, -92.508969246373
Westhaven Elementary School Pre-K;DOE;4;36;40.0;TNReady;3rd - ELA;103.0;11.0;10.7;VPK/Head Start;4585 Hodge Road;38109;Memphis;4585 Hodge Road Memphis, TN 38109;35.0240056;-90.0498656;47157022322;47157022322;47157022322;6;11;8;34.15354521001339, -92.50896993524474
Forest Hill Elementary Pre-K;DOE;20;20;40.0;TNReady;3rd - ELA;106.0;80.0;75.5;619;3368 Forest Hill Irene Rd.;38138;Germantown;3368 Forest Hill Irene Rd. Germantown, TN 38138;35.0573748;-89.758199;47157021342;47157021342;47157021355;;4;;34.153545354711426, -92.50896898104317
Riverdale Elementary Pre-K;DOE;20;20;40.0;TNReady;3rd - ELA;117.0;94.0;80.3;619;1745 Miller Farms Rd.;38138;Germantown;1745 Miller Farms Rd. Germantown, TN 38138;35.1014878;-89.8158224;47157021420;47157021420;47157021420;;4;;34.153545465093146, -92.50896918069478
White Station Elementary School Pre-K;DOE;0;40;40.0;TNReady;3rd - ELA;117.0;39.0;33.3;Fund 1;4840 Chickasaw Road;38117;Memphis;4840 Chickasaw Road Memphis, TN 38117;35.1397358;-89.9009459;47157008600;47157008600;47157008600;5;5;9;34.15354555438058, -92.50896946971731
Parkway Village Elementary Pre-K;DOE;30;30;60.0;TNReady;3rd - ELA;119.0;24.0;20.2;VPK;3000 Claudette Road;38118;Memphis;3000 Claudette Road Memphis, TN 38118;35.0669197;-89.9244909;47157010610;47157010610;47157010610;4;12;9;34.15354535051506, -92.50896953134864
Chimneyrock Elementary Pre-K;DOE;0;40;40.0;TNReady;3rd - ELA;120.0;37.0;30.8;F8M;8601 CHIMNEYROCK BLVD;38016;Memphis;8601 CHIMNEYROCK BLVD Memphis, TN 38016;35.176744;-89.7770362;47157021135;47157021135;47157021135;1;2;9;34.15354567842848, -92.50896906935404
Alcy Elementary Pre-K;DOE;9;11;20.0;TNReady;3rd - ELA;131.0;12.0;9.2;Head Start;1750 Alcy Road;38114;Memphis;1750 Alcy Road Memphis, TN 38114;35.0789894;-90.0045865;47157007821;47157007821;47157007821;6;9;8;34.15354536897332, -92.50896979804769
Macon-Hall Elementary School Pre-K;DOE;9;11;20.0;TNReady;3rd - ELA;152.0;61.0;40.1;Head Start;9800 Macon Road;38016;Memphis;9800 Macon Road Memphis, TN 38016;35.1623494;-89.7352725;47157021010;47157021010;47157021022;;1;;34.15354564660097, -92.50896892851213
Creative Home Academy and Preschool, LLC;DHS;10;10;20.0;;;;;;tuition;1149 Semmes Road;38111;Memphis;1149 Semmes Road Memphis, TN 38111;35.1002439;-89.9613854;47157007900;47157007900;47157007900;4;9;8;34.153545435111866, -92.50896966029491
1st Class Montessori School - Midtown;Unlicensed;12;12;24.0;;;;;;tuition;1336 Peabody Ave;38104;Memphis;1336 Peabody Ave Memphis, TN 38104;35.1329106;-90.0170346;47157003600;47157003600;47157003600;6;8;8;34.15354551448304, -92.50896985092487
McCormack Surprise Day School;DHS;9;9;18.0;;;;;;tuition;1424 Florida Street;38106;Memphis;1424 Florida Street Memphis, TN 38106;35.1084235;-90.0619407;47157005400;47157011700;47157011700;6;8;8;34.15354543917365, -92.50896999358866
St. Paul School;Unlicensed;38;38;76.0;;;;;;tuition;1425 E Shelby Dr;38116;Memphis;1425 E Shelby Dr Memphis, TN 38116;35.0200104;-90.015455;47157022120;47157022121;47157022121;3;11;8;34.153545205345274, -92.50896982092706
DESTINATION EDUCATION ACADEMY;DHS;11;11;22.0;;;;;;tuition;1639 Madison Ave;38104;Memphis;1639 Madison Ave Memphis, TN 38104;35.1376629;-90.0066449;47157003400;47157003400;47157003400;6;7;8;34.15354552940432, -92.50896981771695
Ms. Sunshine Learn and Laugh Academy;DHS;10;10;20.0;;;;;;tuition;1647 Semmes;38114;Memphis;1647 Semmes Memphis, TN 38114;35.0867901;-89.9620154;47157008120;47157008120;47157008120;4;9;8;34.15354539812397, -92.50896965941764
Gateway Learning Academy, LLC;DHS;10;10;20.0;;;;;;tuition;185 East Norwood Avenue;38109;Memphis;185 East Norwood Avenue Memphis, TN 38109;35.0912092;-90.0565917;47157005500;47157005500;47157005500;6;9;8;34.15354539297079, -92.5089699721749
Sycamore View Church of Christ Preschool;DHS;26;26;52.0;;;;;;tuition;1910 Sycamore View;38134;Memphis;1910 Sycamore View Memphis, TN 38134;35.1775942;-89.8706761;47157020610;47157020610;47157020610;1;6;9;34.153545663664936, -92.50896937824062
Central Learning Center;DOE;100;100;200.0;;;;;;tuition;2005 E. Winchester Blvd.;38017;Collierville;2005 E. Winchester Blvd. Collierville, TN 38017;35.043503;-89.7278719;47157021520;47157021520;47157021546;;2;;34.15354532222903, -92.50896887801878
Southern Avenue Charter School;DOE;40;40;80.0;;;;;;tuition;2221 Democrat Road;38132;Memphis;2221 Democrat Road Memphis, TN 38132;35.0683195;-89.9899973;47157010410;47157022500;47157022500;3;9;8;34.15354534239348, -92.50896974760903
Germantown Presbyterian Preschool;DHS;20;20;40.0;;;;;;tuition;2363 South Germantown Road South;38138;Germantown;2363 South Germantown Road South Germantown, TN 38138;35.0840007;-89.8107402;47157021430;47157021430;47157021430;;4;;34.15354541809391, -92.50896916010065
St. George's Episcopal Preschool;DHS;19;19;38.0;;;;;;tuition;2425 South Germantown Road;38138;Germantown;2425 South Germantown Road Germantown, TN 38138;35.0834927;-89.8127048;47157021430;47157021430;47157021430;;4;;34.153545416342986, -92.50896916646575
Olivia's Montessori Preschool;Unlicensed;8;8;16.0;;;;;;tuition;2755 Appling Rd;38133;Memphis;2755 Appling Rd Memphis, TN 38133;35.2007533;-89.8154881;47157021112;47157021112;47157021112;1;5;9;34.153545737211616, -92.50896920138919
First Baptist Broad;DOE;9;11;20.0;;;;;;Head Start;2835 Broad Ave.;38112;Memphis;2835 Broad Ave. Memphis, TN 38112;35.1469859;-89.9666083;47157002800;47157002800;47157002800;5;7;9;34.15354556226447, -92.5089696877766
Porter-Leath Early Childhood Academy/;DHS;60;60;120.0;;;;;;tuition;3060 Baskin St;38127;Memphis;3060 Baskin St Memphis, TN 38127;35.2100114;-90.0212576;47157010110;47157010110;47157010122;7;8;8;34.15354572502267, -92.50896988177634
Kidazzle-Flying Start;DOE;0;20;20.0;;;;;;F8M;3194 Independent Drive;38118;Memphis;3194 Independent Drive Memphis, TN 38118;35.0671136;-89.9572704;47157010420;47157980100;47157980100;3;12;8;34.15354534506269, -92.50896963945443
Porter-Leath E C Center-Rangeline & EHS;DHS;50;50;100.0;;;;;;tuition;3274 RANGELINE ROAD;38127;Memphis;3274 RANGELINE ROAD Memphis, TN 38127;35.2149886;-89.9749459;47157010220;47157010220;47157010220;1;6;9;34.15354574711779, -92.50896973019479
La Petite Cordova Community Part Pre-K;DOE;2;18;20.0;;;;;;VPK;330 S. Walnut Bend;38018;Memphis;330 S. Walnut Bend Memphis, TN 38018;35.1211678;-89.7988668;47157021133;47157021140;47157021140;2;4;9;34.15354552212541, -92.50896912911904
Red Robin's Academy of Learning, INC;DHS;8;8;16.0;;;;;;tuition;3311 Kimball;38111;Memphis;3311 Kimball Memphis, TN 38111;35.0940288;-89.952315;47157008120;47157008120;47157008120;4;9;8;34.15354541973388, -92.50896962902809
Ridgeway Early Learning Center;DOE;40;40;80.0;;;;;;Head Start;3435 Ridge Meadow Parkway;38115;Memphis;3435 Ridge Meadow Parkway Memphis, TN 38115;35.0540048;-89.8581424;47157021721;47157021721;47157021721;3;13;8;34.153545327230866, -92.50896930978367
Bartlett Baptist Kindergarten;Unlicensed;41;41;82.0;;;;;;tuition;3465 Kirby Whitten Parkway;38135;Bartlett;3465 Kirby Whitten Parkway Bartlett, TN 38135;35.2199841;-89.8380027;47157020631;47157020634;47157020634;;3;;34.15354578580757, -92.50896927983506
Word of Faith Christian Academy;DOE;40;40;80.0;;;;;;tuition;3528 Sharpe Avenue;38111;Memphis;3528 Sharpe Avenue Memphis, TN 38111;35.0870204;-89.9456481;47157008200;47157008200;47157008200;4;10;8;34.15354540174296, -92.50896960551061
Macon Road Baptist School - Oakland Campus;Unlicensed;10;10;20.0;;;;;;tuition;3540 Tomlin Rd;38068;Somerville;3540 Tomlin Rd Somerville, TN 38068;35.2314903;-89.4862895;;;47047060404;;;;34.1535458815469, -92.508968122879
CKC Pre-School, Inc;DHS;10;10;20.0;;;;;;tuition;3759 Horn Lake Road;38109;Memphis;3759 Horn Lake Road Memphis, TN 38109;35.045886;-90.070564;47157022310;47157022310;47157022310;6;11;8;34.15354526620265, -92.50897000828499
U.of.M.B.K.Lipman ECS/RI Ctr. & First 8;DOE;40;40;80.0;;;;;;tuition;3771 Poplar Avenue;38152;Memphis;3771 Poplar Avenue Memphis, TN 38152;35.1253159;-89.9361298;47157007300;47157007300;47157007300;5;10;9;34.153545508437155, -92.50896958254077
Highland Day School;DOE;104;104;208.0;;;;;;tuition;400 N. Houston Levee;38018;Memphis;400 N. Houston Levee Memphis, TN 38018;35.1363646;-89.7246434;47157021020;47157021020;47157021020;;2;;34.15354557732462, -92.50896888776582
Presbyterian Day School;Unlicensed;38;38;76.0;;;;;;tuition;4025 Poplar Ave;38111;Memphis;4025 Poplar Ave Memphis, TN 38111;35.123249;-89.9295839;47157007300;47157007300;47157007300;5;10;9;34.153545503967344, -92.50896956050725
Presbyterian Day School Child Dev. Ctr.;DOE;40;40;80.0;;;;;;tuition;4025 POPLAR AVENUE;38111;Memphis;4025 POPLAR AVENUE Memphis, TN 38111;35.123249;-89.9295839;47157007300;47157007300;47157007300;5;10;9;34.153545503967344, -92.50896956050725
Riverdale Kiddie Community Partner Pre-K;DOE;4;36;40.0;;;;;;VPK;4087 Riverdale Road;38115;Memphis;4087 Riverdale Road Memphis, TN 38115;35.0371094;-89.8323949;47157021742;47157021746;47157021746;3;13;9;34.153545285625675, -92.50896922119279
St. Mary's Episcopal School;Unlicensed;54;54;108.0;;;;;;tuition;41 N Perkins Rd;38117;Memphis;41 N Perkins Rd Memphis, TN 38117;35.1323112;-89.9092802;47157008600;47157008600;47157008600;5;5;9;34.15354553251055, -92.5089694955625
Christ Methodist Day Preschool;DOE;40;40;80.0;;;;;;tuition;411 S. Grove Park;38117;Memphis;411 S. Grove Park Memphis, TN 38117;35.1205719;-89.9125466;47157008500;47157008500;47157008500;5;10;9;34.153545499740304, -92.50896950375305
Yale Road Learning Center, LLC;DHS;9;9;18.0;;;;;;tuition;4400 Yale Road;38128;Memphis;4400 Yale Road Memphis, TN 38128;35.2222297;-89.9166822;47157020530;47157020532;47157020532;1;6;9;34.15354577759938, -92.50896953970854
YMCA Whitehaven;DOE;18;22;40.0;;;;;;Head Start;4727 Elvis Presley Blvd;38116;Memphis;4727 Elvis Presley Blvd Memphis, TN 38116;35.0196275;-90.02600307;47157022120;47157022121;47157022121;3;11;8;34.153545202370346, -92.50896985561651
St. Luke's Day School;Unlicensed;49;49;98.0;;;;;;tuition;480 S Highland St;38111;Memphis;480 S Highland St Memphis, TN 38111;35.1185756;-89.9452564;47157007300;47157007300;47157007300;5;10;9;34.15354548829795, -92.50896961114815
Changing The Hands Childcare Center LLC;DHS;8;8;16.0;;;;;;tuition;4826 CROMWELL AVE;38118;Memphis;4826 CROMWELL AVE Memphis, TN 38118;35.0465596;-89.9025703;47157010900;47157022600;47157022600;3;12;8;34.15354529871557, -92.50896945461302
Memphis Junior Academy;Unlicensed;4;4;8.0;;;;;;tuition;50 N Mendenhall Rd;38117;Memphis;50 N Mendenhall Rd Memphis, TN 38117;35.1325073;-89.8971359;47157009200;47157009200;47157009201;2;5;9;34.153545535264875, -92.5089694555698
Memphis Junior Academy 7th Day Adventist;DOE;40;40;80.0;;;;;;tuition;50 N. Mendenhall Road;38117;Memphis;50 N. Mendenhall Road Memphis, TN 38117;35.1325073;-89.8971359;47157009200;47157009200;47157009201;2;5;9;34.153545535264875, -92.5089694555698
Bartlett United Methodist Preschool;DHS;56;56;112.0;;;;;;tuition;5676 STAGE RD.;38134;Bartlett;5676 STAGE RD. Bartlett, TN 38134;35.2051354;-89.8745238;47157020651;47157020651;47157020651;;3;;34.15354573844484, -92.50896939697266
Kid Station Childcare Center LLC;DHS;10;10;20.0;;;;;;tuition;579 Erin Drive;38117;Memphis;579 Erin Drive Memphis, TN 38117;35.1149157;-89.8996176;47157008500;47157008500;47157008500;5;10;9;34.153545486598496, -92.50896945988842
Sensational Enlightenment community partner;DOE;2;18;20.0;;;;;;VPK;5960 KNIGHT ARNOLD ROAD EXT;38115;Memphis;5960 KNIGHT ARNOLD ROAD EXT Memphis, TN 38115;35.0611948;-89.8647152;47157021721;47157021721;47157021721;3;13;8;34.15354534573669, -92.50896933303078
St. Ann Catholic School;DOE;18;18;36.0;;;;;;tuition;6529 STAGE ROAD;38134;Bartlett;6529 STAGE ROAD Bartlett, TN 38134;35.203426;-89.8464705;47157020622;47157020622;47157020622;;3;;34.15354573888094, -92.50896930411481
Kings and Queens Daycare Comm Part Pre-K;DOE;27;33;60.0;;;;;;Head Start;694 W. Shelby Dr.;38109;Memphis;694 W. Shelby Dr. Memphis, TN 38109;35.0211241;-90.0857192;47157022330;47157022330;47157022330;6;11;8;34.15354519557106, -92.50897005280954
Madonna Learning Center;Unlicensed;10;10;20.0;;;;;;tuition;7007 Poplar Ave;38138;Germantown;7007 Poplar Ave Germantown, TN 38138;35.0965396;-89.8295402;47157021430;47157021430;47157021430;;4;;34.15354544902743, -92.50896922483133
The Maria Montessori School;DOE;40;40;80.0;;;;;;tuition;740 HARBOR BEND ROAD;38103;Memphis;740 HARBOR BEND ROAD Memphis, TN 38103;35.1613908;-90.0529478;47157000100;47157000100;47157000100;7;8;8;34.15354558598302, -92.50896997557248
Circles of Success Pre-K;DOE;40;40;80.0;TNReady;3rd - ELA;26.0;2.0;7.7;VPK;867 S. Parkway East;38106;Memphis;867 S. Parkway East Memphis, TN 38106;35.1078758;-90.0333094;47157005900;47157005900;47157005900;4;8;8;34.15354544289912, -92.50896989908044
Springdale Elementary Pre-K;DOE;4;36;40.0;TNReady;3rd - ELA;31.0;19.0;61.3;VPK/Head Start;880 N. Hollywood St.;38108;Memphis;880 N. Hollywood St. Memphis, TN 38108;35.1600896;-89.9752576;47157000900;47157000900;47157000900;5;7;9;34.15354559659893, -92.50896971916777
Springdale Elementary Pre-K;DOE;10;10;20.0;TNReady;3rd - ELA;31.0;19.0;61.3;Head Start;880 N. Hollywood St.;38108;Memphis;880 N. Hollywood St. Memphis, TN 38108;35.1600896;-89.9752576;47157000900;47157000900;47157000900;5;7;9;34.15354559659893, -92.50896971916777
Dunbar Elementary School Pre-K;DOE;10;10;20.0;TNReady;3rd - ELA;33.0;6.0;18.2;VPK;2606 Select Ave.;38114;Memphis;2606 Select Ave. Memphis, TN 38114;35.1067104;-89.9755135;47157006800;47157006800;47157006800;4;9;8;34.153545450255585, -92.5089697082905
Barret's Chapel School Pre-K;DOE;20;20;40.0;TNReady;3rd - ELA;35.0;16.0;45.7;619;10280 Godwin Road;38002;Arlington;10280 Godwin Road Arlington, TN 38002;35.3488747;-89.7202406;47157020810;47157020810;47157020835;;1;;34.15354616055579, -92.50896891991371
Vollentine Elementary Pre-K;DOE;4;36;40.0;TNReady;3rd - ELA;35.0;3.0;8.6;VPK/Head Start;1682 Vollintine Ave.;38107;Memphis;1682 Vollintine Ave. Memphis, TN 38107;35.1645438;-90.0014788;47157000700;47157000700;47157000700;7;7;8;34.153545604019975, -92.50896980658847
Vollentine Elementary Pre-K;DOE;20;20;40.0;TNReady;3rd - ELA;35.0;3.0;8.6;Head Start;1682 Vollintine Ave.;38107;Memphis;1682 Vollintine Ave. Memphis, TN 38107;35.1645438;-90.0014788;47157000700;47157000700;47157000700;7;7;8;34.153545604019975, -92.50896980658847
E.E. Jeter;DOE;10;10;20.0;TNReady;3rd - ELA;38.0;10.0;26.3;Head Start;7662 Benjestown Road;38053;Millington;7662 Benjestown Road Millington, TN 38053;35.3317901;-90.029372;47157020100;47157020101;47157020101;;1;;34.1535460573009, -92.50896993526672
Larose Elementary School Pre-K;DOE;10;10;20.0;TNReady;3rd - ELA;44.0;3.0;6.8;VPK;864 South Wellington;38126;Memphis;864 South Wellington Memphis, TN 38126;35.1236028;-90.0470627;47157004900;47157011600;47157011600;6;8;8;34.15354548349156, -92.50896994787384
Northaven Elementary School Pre-K;DOE;10;10;20.0;TNReady;3rd - ELA;47.0;6.0;12.8;VPK;5157 NORTH CIRCLE ROAD;38127;Memphis;5157 NORTH CIRCLE ROAD Memphis, TN 38127;35.2651384;-90.0424123;47157020100;47157020101;47157020101;;1;;34.1535458722478, -92.50896996362108
Frayser Corning Elementary School;DOE;18;22;40.0;TNReady;3rd - ELA;48.0;4.0;8.3;Head Start;1602 Dellwood Ave;38127;Memphis;1602 Dellwood Ave Memphis, TN 38127;35.214181;-90.0104744;47157010110;47157010110;47157010122;7;8;8;34.15354573841878, -92.50896984714322
Douglass School Pre-K;DOE;2;18;20.0;TNReady;3rd - ELA;53.0;9.0;17.0;SPED;1650 Ash St.;38108;Memphis;1650 Ash St. Memphis, TN 38108;35.1775656;-89.9531982;47157009000;47157011100;47157011100;7;7;8;34.15354564852237, -92.50896965028252
Keystone Elementary Pre-K;DOE;4;36;40.0;TNReady;3rd - ELA;53.0;11.0;20.8;SPED;4301 Old Allen Road;38128;Memphis;4301 Old Allen Road Memphis, TN 38128;35.2431139;-89.9533094;47157020521;47157020521;47157020521;7;6;9;34.153545828150605, -92.50896966504207
Winchester Elementary School Pre-K;DOE;40;40;80.0;TNReady;3rd - ELA;54.0;11.0;20.4;tuition;3587 Boeingshire Dr.;38116;Memphis;3587 Boeingshire Dr. Memphis, TN 38116;35.0508156;-89.9971009;47157022022;47157022022;47157022026;3;11;8;34.15354529312373, -92.50896976718379
Winchester Elementary School Pre-K;DOE;0;40;40.0;TNReady;3rd - ELA;54.0;11.0;20.4;F8M;3587 Boeingshire Dr.;38116;Memphis;3587 Boeingshire Dr. Memphis, TN 38116;35.0508156;-89.9971009;47157022022;47157022022;47157022026;3;11;8;34.15354529312373, -92.50896976718379
Oakshire Elementary Pre-K;DOE;4;36;40.0;TNReady;3rd - ELA;57.0;11.0;19.3;VPK/Head Start;1765 East Holmes Road;38116;Memphis;1765 East Holmes Road Memphis, TN 38116;35.0050593;-90.0043534;47157022130;47157022130;47157022130;3;12;8;34.15354516639528, -92.50896978104582
Sea Isle Elementary Pre-K;DOE;0;40;40.0;TNReady;3rd - ELA;58.0;15.0;25.9;Fund 1;5250 SEA ISLE ROAD;38117;Memphis;5250 SEA ISLE ROAD Memphis, TN 38117;35.0950892;-89.8883365;47157009500;47157009500;47157009501;2;10;9;34.15354543431923, -92.50896941834489
Double Tree Elementary School Pre-K;DOE;0;40;40.0;TNReady;3rd - ELA;59.0;12.0;20.3;F8M;4560 Double Tree Road;38109;Memphis;4560 Double Tree Road Memphis, TN 38109;35.0238005;-90.1025719;47157022210;47157022210;47157022210;6;11;8;34.153545199829864, -92.50897010895503
Raleigh-Bartlett Meadows Elem Pre-K;DOE;0;20;20.0;TNReady;3rd - ELA;59.0;6.0;10.2;F8M;5195 Twin Woods Avenue;38134;Memphis;5195 Twin Woods Avenue Memphis, TN 38134;35.1956499;-89.890077;47157020621;47157020621;47157020621;1;6;9;34.153545709608714, -92.50896944616363
Cromwell Elementary School Pre-K;DOE;2;18;20.0;TNReady;3rd - ELA;60.0;9.0;15.0;VPK/Head Start;4989 Cromwell Rd;38118;Memphis;4989 Cromwell Rd Memphis, TN 38118;35.0455682;-89.8971722;47157010900;47157022600;47157022600;3;12;8;34.153545296983836, -92.50896943659957
Scenic Hills Elementary Pre-K;DOE;6;54;60.0;TNReady;3rd - ELA;62.0;7.0;11.3;VPK/Head Start;3450 Scenic Hills Hwy.;38128;Memphis;3450 Scenic Hills Hwy. Memphis, TN 38128;35.2065973;-89.9603461;47157020511;47157020511;47157020511;7;7;8;34.153545726784856, -92.50896968022151
Egypt Elementary Pre-K;DOE;9;11;20.0;TNReady;3rd - ELA;63.0;15.0;23.8;Head Start;4160 Karen Cove;38128;Memphis;4160 Karen Cove Memphis, TN 38128;35.2394656;-89.9303598;47157020522;47157020523;47157020523;7;6;9;34.15354582234108, -92.50896958858371
Sherwood Elementary Pre-K;DOE;9;11;20.0;TNReady;3rd - ELA;66.0;11.0;16.7;Head Start;1156 Robin Hood Lane;38111;Memphis;1156 Robin Hood Lane Memphis, TN 38111;35.1000406;-89.9375849;47157008000;47157008000;47157008000;4;10;9;34.1535454388994, -92.50896958178785
Libertas School of Memphis;DOE;30;30;60.0;TNReady;3rd - ELA;67.0;24.0;35.8;tuition;3777 Edenburg Dr;38127;Memphis;3777 Edenburg Dr Memphis, TN 38127;35.22897;-89.9786272;47157010210;47157010210;47157010210;7;7;8;34.15354578476467, -92.50896974540083
Robert R. Church Elementary Pre-K;DOE;2;18;20.0;TNReady;3rd - ELA;71.0;15.0;21.1;VPK/Head Start;4100 Millbranch Road;38116;Memphis;4100 Millbranch Road Memphis, TN 38116;35.0373252;-90.0055943;47157022021;47157022024;47157022024;6;11;8;34.153545254600076, -92.50896979222155
William H. Brewster Elementary Pre-K;DOE;20;20;40.0;TNReady;3rd - ELA;72.0;14.0;19.4;VPK;2605 Sam Cooper Blvd;38112;Memphis;2605 Sam Cooper Blvd Memphis, TN 38112;35.1462625;-89.9737585;47157002700;47157002700;47157002700;5;7;9;34.1535455589766, -92.5089697111896
Brownsville Road Elementary Pre-K;DOE;2;18;20.0;TNReady;3rd - ELA;72.0;29.0;40.3;VPK/Head Start;5292 Banbury Street;38134;Memphis;5292 Banbury Street Memphis, TN 38134;35.1927931;-89.8692203;47157020621;47157020621;47157020621;;3;;34.153545705586374, -92.50896937677868
Lowrance School Pre-K;DOE;18;22;40.0;TNReady;3rd - ELA;73.0;9.0;12.3;Head Start;7740 Lowrance Road;38125;Memphis;7740 Lowrance Road Memphis, TN 38125;35.0365961;-89.805421;47157021745;47157021745;47157021745;;13;;34.1535452891429, -92.50896913215601
Crump Elementary Pre-K;DOE;30;30;60.0;TNReady;3rd - ELA;79.0;16.0;20.3;Head Start;4405 Crump Road;38141;Memphis;4405 Crump Road Memphis, TN 38141;35.0285626;-89.8614888;47157021741;47157021741;47157021759;3;13;8;34.15354525689041, -92.50896931522911
Crump Elementary Pre-K;DOE;6;54;60.0;TNReady;3rd - ELA;79.0;16.0;20.3;VPK/Head Start;4405 Crump Road;38141;Memphis;4405 Crump Road Memphis, TN 38141;35.0285626;-89.8614888;47157021741;47157021741;47157021759;3;13;8;34.15354525689041, -92.50896931522911
Ross Elementary School Pre-K;DOE;2;18;20.0;TNReady;3rd - ELA;79.0;24.0;30.4;SPED;4890 Ross Road;38141;Memphis;4890 Ross Road Memphis, TN 38141;35.0160743;-89.8363827;47157021754;47157021754;47157021754;3;13;8;34.153545227246724, -92.5089692297204
Ross Elementary School Pre-K;DOE;4;36;40.0;TNReady;3rd - ELA;79.0;24.0;30.4;VPK;4890 Ross Road;38141;Memphis;4890 Ross Road Memphis, TN 38141;35.0160743;-89.8363827;47157021754;47157021754;47157021754;3;13;8;34.153545227246724, -92.5089692297204
Holmes Road Elementary Pre-K;DOE;4;36;40.0;TNReady;3rd - ELA;83.0;17.0;20.5;VPK/Head Start;1083 Holmes Road;38116;Memphis;1083 Holmes Road Memphis, TN 38116;35.0052494;-90.0298824;47157022130;47157022130;47157022130;3;12;8;34.153545162256066, -92.50896986524828
Wells Station Elementary Pre-K;DOE;60;60;120.0;TNReady;3rd - ELA;88.0;46.0;52.3;Head Start;1610 Wells Station Road;38108;Memphis;1610 Wells Station Road Memphis, TN 38108;35.1753119;-89.9156864;47157009100;47157009100;47157009100;7;6;9;34.153545649193326, -92.50896952612362
Hickory Ridge Elementary Pre-K;DOE;20;20;40.0;TNReady;3rd - ELA;89.0;20.0;22.5;VPK;3890 Hickory Hill Road;38115;Memphis;3890 Hickory Hill Road Memphis, TN 38115;35.0415841;-89.8641879;47157021732;47157021732;47157021757;3;13;8;34.153545292085795, -92.50896932698637
Lucie E. Campbell Elementary Pre-K;DOE;4;36;40.0;TNReady;3rd - ELA;91.0;;;VPK/Head Start;3232 Birchfield Drive;38127;Memphis;3232 Birchfield Drive Memphis, TN 38127;35.2144137;-89.9691698;47157010220;47157010220;47157010220;1;6;9;34.15354574659658, -92.50896971102665
Farmington Elementary Pre-K;DOE;20;20;40.0;TNReady;3rd - ELA;93.0;74.0;79.6;619;2085 Cordes Road;38139;Germantown;2085 Cordes Road Germantown, TN 38139;35.0924184;-89.7789412;47157021352;47157021352;47157021352;;4;;34.15354544696915, -92.50896905711816
Kate Bond Elementary Pre-K;DOE;20;20;40.0;TNReady;3rd - ELA;101.0;35.0;34.7;VPK;2727 Kate Bond Road;38133;Memphis;2727 Kate Bond Road Memphis, TN 38133;35.199362;-89.8044325;47157021113;47157021113;47157021113;1;5;9;34.15354573541663, -92.50896916463701
Bon Lin Elementary Preschool;DOE;42;42;84.0;TNReady;3rd - ELA;103.0;65.0;63.1;619;3940 North Germantown Road;38135;Bartlett;3940 North Germantown Road Bartlett, TN 38135;35.2326236;-89.7904023;47157020830;47157020832;47157020833;;3;;34.15354582913802, -92.50896912568759
Highland Oaks Elementary Pre-K;DOE;0;60;60.0;TNReady;3rd - ELA;109.0;32.0;29.4;F8M;5252 Annandale Drive;38125;Memphis;5252 Annandale Drive Memphis, TN 38125;35.0049643;-89.8141446;47157021752;47157021752;47157021752;;13;;34.15354520085699, -92.5089691539692
Collierville Elementary School Pre-K;DOE;140;140;280.0;TNReady;3rd - ELA;116.0;74.0;63.8;619;590 Peterson Lake Road;38017;Collierville;590 Peterson Lake Road Collierville, TN 38017;35.0561821;-89.6673582;47157021612;47157021612;47157021612;;2;;34.1535453680253, -92.50896868130909
White Station Elementary School Pre-K;DOE;2;18;20.0;TNReady;3rd - ELA;117.0;39.0;33.3;VPK/Head Start;4840 Chickasaw Road;38117;Memphis;4840 Chickasaw Road Memphis, TN 38117;35.1397358;-89.9009459;47157008600;47157008600;47157008600;5;5;9;34.15354555438058, -92.50896946971731
Grahamwood Elementary Pre-K;DOE;20;20;40.0;TNReady;3rd - ELA;145.0;80.0;55.2;619;3950 Summer;38122;Memphis;3950 Summer Memphis, TN 38122;35.1543524;-89.9206512;47157008700;47157008700;47157008700;5;5;9;34.153545590843216, -92.50896953788869
Macon-Hall Elementary School Pre-K;DOE;0;40;40.0;TNReady;3rd - ELA;152.0;61.0;40.1;Fund 1;9800 Macon Road;38016;Memphis;9800 Macon Road Memphis, TN 38016;35.1623494;-89.7352725;47157021010;47157021010;47157021022;;1;;34.15354564660097, -92.50896892851213
Lakeland Elementary Pre-K;DOE;60;60;120.0;TNReady;3rd - ELA;195.0;146.0;74.9;619;10050 Oak Seed Lane;38002;Lakeland;10050 Oak Seed Lane Lakeland, TN 38002;35.2306435;-89.7403606;47157020820;47157020820;47157020836;;3;;34.15354583284611, -92.50896896028179
Mi Escuelita Bilingual Christian Academy, LLC;DHS;10;10;20.0;;;;;;tuition;1018 South Yates Road;38119;Memphis;1018 South Yates Road Memphis, TN 38119;35.1038586;-89.8769834;47157009600;47157009600;47157009600;2;10;9;34.15354546042602, -92.50896938284302
New Glory Preparatory & Lrng Ctr.,LLC;DHS;33;33;66.0;;;;;;tuition;1044 Mississippi Blvd.;38126;Memphis;1044 Mississippi Blvd. Memphis, TN 38126;35.1183625;-90.0375389;47157004800;47157011600;47157011600;4;8;8;34.15354547086798, -92.50896991532635
Harding Academy Preschool White Station;DOE;60;60;120.0;;;;;;tuition;1106 COLONIAL ROAD;38117;Memphis;1106 COLONIAL ROAD Memphis, TN 38117;35.1018054;-89.9009095;47157009400;47157009400;47157009400;5;10;9;34.153545450431174, -92.50896946126865
Lambs & Ivy;DOE;2;18;20.0;;;;;;VPK;1185 Macon View Drive;38018;Memphis;1185 Macon View Drive Memphis, TN 38018;35.1577808;-89.7324965;47157021020;47157021020;47157021020;;2;;34.15354563458654, -92.50896891835741
St. Luke Learning Center;DHS;9;9;18.0;;;;;;tuition;1641 Keating;38114;Memphis;1641 Keating Memphis, TN 38114;35.1007142;-89.9811957;47157006900;47157006900;47157006900;4;9;8;34.15354543278452, -92.50896972570621
The Gentlemen and Ladies Academy, Inc;DHS;14;14;28.0;;;;;;tuition;1690 Bonnie Lane;38016;Cordova;1690 Bonnie Lane Cordova, TN 38016;35.1716882;-89.7903126;47157021135;47157021135;47157021135;2;2;9;34.15354566214846, -92.50896911201181
The Goddard School Cordova;DHS;16;16;32.0;;;;;;tuition;190 FOREST HILL IRENE ROA;38018;Cordova;190 FOREST HILL IRENE ROA Cordova, TN 38018;35.1304383;-89.7607038;47157021138;47157021138;47157021138;;4;;34.153545554499665, -92.50896900534379
ECS Lower School Early Childhood Program;DOE;60;60;120.0;;;;;;tuition;1920 Forest Hill Irene Rd.;38139;Germantown;1920 Forest Hill Irene Rd. Germantown, TN 38139;35.0962831;-89.7566896;47157021353;47157021353;47157021357;;4;;34.15354546162311, -92.50896898461058
Hope House;DOE;0;20;20.0;;;;;;F8M;23 Idwild Street;38104;Memphis;23 Idlewild Street Memphis, TN 38104;35.1373747;-90.00161679;47157003200;47157003200;47157003200;6;7;8;34.1535455295323, -92.50896980107764
Bowie Reading and Learning Center;Unlicensed;10;10;20.0;;;;;;tuition;2550 Ridgeway Road;38119;Memphis;2550 Ridgeway Road Memphis, TN 38119;35.0792067;-89.8585403;47157021331;47157021331;47157021331;2;10;9;34.15354539622919, -92.50896931662918
La Petite Academy @ Coleman Rd.;DHS;26;26;52.0;;;;;;tuition;2857 Coleman Rd.;38128;Memphis;2857 Coleman Rd. Memphis, TN 38128;35.2031814;-89.9138975;47157020542;47157020542;47157020542;1;6;9;34.153545725901964, -92.50896952634572
La Petite Academy @ Hickory Hill;DHS;12;12;24.0;;;;;;tuition;2914 Hickory Hill Road;38115;Memphis;2914 Hickory Hill Road Memphis, TN 38115;35.0690664;-89.8651628;47157021721;47157021721;47157021721;4;12;8;34.1535453672287, -92.5089693362348
La Petite Academy @ Poplar View Pkwy;DHS;8;8;16.0;;;;;;tuition;310 Poplar View Parkway;38017;Collierville;310 Poplar View Parkway Collierville, TN 38017;35.0482984;-89.6999443;47157021530;47157021530;47157021530;;2;;34.15354534046992, -92.50896878700364
It's All About Learning Christian Academ;DHS;10;10;20.0;;;;;;tuition;3200 Millington Rd.;38127;Memphis;3200 Millington Rd. Memphis, TN 38127;35.2129761;-90.0282237;47157009900;47157009902;47157009902;7;8;8;34.15354573187641, -92.50896990539225
Brinkley Heights Urban Academy;DOE;40;40;80.0;;;;;;tuition;3260 MACON ROAD;38122;Memphis;3260 MACON ROAD Memphis, TN 38122;35.1639666;-89.9516622;47157001100;47157001100;47157001100;5;7;9;34.15354561153192, -92.50896964223281
JoAnn's Kids Learning Academy;DHS;13;13;26.0;;;;;;tuition;3277 N. Watkins;38127;Memphis;3277 N. Watkins Memphis, TN 38127;35.215231;-90.0039617;47157010110;47157010110;47157010122;7;8;8;34.1535457424854, -92.50896982590356
Incarnation Catholic School;Unlicensed;20;20;40.0;;;;;;tuition;360 Bray Station Rd;38017;Collierville;360 Bray Station Rd Collierville, TN 38017;35.0489844;-89.7041218;47157021530;47157021530;47157021530;;2;;34.153545341587446, -92.50896880092611
Horn Lake Road Lrn. Ctr. Comm Part Pre-K;DOE;40;40;80.0;;;;;;tuition;3657 Horn Lake Road;38109;Memphis;3657 Horn Lake Road Memphis, TN 38109;34.9136429;-90.0668428;;;;;;;34.153544904442654, -92.50896996697978
Freedom Preparatory Academy @Whitehaven;DOE;20;20;40.0;;;;;;F8M;3750 Millbranch Rd;38116;Memphis;3750 Millbranch Rd Memphis, TN 38116;35.0462156;-90.005975;47157022022;47157022022;47157022025;6;11;8;34.15354527889656, -92.50896979542871
Christ Methodist Early Education Program;DOE;40;40;80.0;;;;;;tuition;411 S. Grove Park;38117;Memphis;411 S. Grove Park Memphis, TN 38117;35.1205719;-89.9125466;47157008500;47157008500;47157008500;5;10;9;34.153545499740304, -92.50896950375305
Porter Leath Children's Ctr.@ American;DHS;60;60;120.0;;;;;;tuition;4207 American Way;38118;Memphis;4207 American Way Memphis, TN 38118;35.0751825;-89.923199;47157010610;47157010610;47157010610;4;12;9;34.153545373396774, -92.50896952890399
Collierville Methodist Preschool;DHS;38;38;76.0;;;;;;tuition;454 W. Poplar;38017;Collierville;454 W. Poplar Collierville, TN 38017;35.0462227;-89.6762719;47157021611;47157021611;47157021611;;2;;34.153545339102365, -92.50896870850775
St. Louis Catholic School;Unlicensed;10;10;20.0;;;;;;tuition;5192 Shady Grove Rd;38117;Memphis;5192 Shady Grove Rd Memphis, TN 38117;35.1245019;-89.8882704;47157009600;47157009600;47157009600;2;5;9;34.15354551494283, -92.50896942458535
Global Children Services, Inc.;DHS;10;10;20.0;;;;;;tuition;5235 Martin Edwards Place;38116;Memphis;5235 Martin Edwards Place Memphis, TN 38116;35.0055474;-90.0067977;47157022130;47157022130;47157022130;3;12;8;34.153545167286815, -92.50896978921105
Threshold Montessori School;DHS;10;10;20.0;;;;;;tuition;581 Ellsworth;38111;Memphis;581 Ellsworth Memphis, TN 38111;35.1157996;-89.9474899;47157007200;47157007200;47157007200;5;9;9;34.15354548028205, -92.5089696179017
SE Academy;Unlicensed;20;20;40.0;;;;;;tuition;5960 Knight Arnold Rd;38115;Memphis;5960 Knight Arnold Rd Memphis, TN 38115;35.0611948;-89.8647152;47157021721;47157021721;47157021721;3;13;8;34.15354534573669, -92.50896933303078
Campus Kids' Corner (SWTCC);DHS;26;26;52.0;;;;;;tuition;5990 RESOURCES DRIVE;38134;Memphis;5990 RESOURCES DRIVE Memphis, TN 38134;35.1591929;-89.8635518;47157021200;47157021200;47157021200;1;5;9;34.15354561453294, -92.50896935071364
Immanuel Lutheran School;DOE;40;40;80.0;;;;;;tuition;6319 RALEIGH LA-GRANGE;38134;Memphis;6319 RALEIGH LA-GRANGE Memphis, TN 38134;35.1789789;-89.852774;47157021111;47157021111;47157021111;1;5;9;34.15354567072798, -92.50896931952735
Immanuel Lutheran School SACC;DOE;40;40;80.0;;;;;;tuition;6319 Raleigh LaGrange Road;38134;Memphis;6319 Raleigh LaGrange Road Memphis, TN 38134;35.1789789;-89.852774;47157021111;47157021111;47157021111;1;5;9;34.15354567072798, -92.50896931952735
Heritage Baptist Preschool;DOE;11;11;22.0;;;;;;tuition;711 N Houston Levee Rd;38018;Memphis;711 N Houston Levee Rd Memphis, TN 38018;35.1445375;-89.7285322;47157021020;47157021020;47157021020;;2;;34.15354559901425, -92.50896890238049
Imagine Academy, Inc;DHS;18;18;36.0;;;;;;tuition;7130 East Shelby Drive;38125;Memphis;7130 East Shelby Drive Memphis, TN 38125;35.0210965;-89.8253621;47157021745;47157021745;47157021745;;13;;34.153545243022876, -92.50896919449188
St. George's Independent School Preschoo;DOE;60;60;120.0;;;;;;tuition;8250 Poplar Avenue;38138;Germantown;8250 Poplar Avenue Germantown, TN 38138;35.0831644;-89.7864271;47157021352;47157021352;47157021352;;4;;34.15354542024014, -92.50896907976474
Cooper Cottage School, LLC;DHS;4;4;8.0;;;;;;tuition;845 S. Cooper St.;38104;Memphis;845 S. Cooper St. Memphis, TN 38104;35.1224726;-89.9912746;47157006300;47157006300;47157006300;4;9;9;34.15354549057799, -92.50896976371068
Hope Presbyterian Preschool;DHS;50;50;100.0;;;;;;tuition;8500 Walnut Grove Road;38018;Cordova;8500 Walnut Grove Road Cordova, TN 38018;35.1304634;-89.7781963;47157021137;47157021137;47157021144;2;4;9;34.15354555137525, -92.50896906301631
Lamplighter Montessori School, Inc.;DOE;40;40;80.0;;;;;;tuition;8563 Fay Rd;38018;Memphis;8563 Fay Rd  Memphis, TN 38018;35.1544838;-89.7782838;47157021137;47157021137;47157021143;2;4;9;34.15354561719209, -92.5089690685791
Tipton Rosemark Academy;DOE;40;40;80.0;;;;;;tuition;8696 Rosemark Road;38053;Memphis;8696 Rosemark Road Memphis, TN 38053;35.3640686;-89.7715617;47157020700;47157020700;47157020700;;1;;34.15354619282927, -92.50896909243873
University of Little Scholars;DHS;10;10;20.0;;;;;;tuition;941 E. Raines Rd.;38116;Memphis;941 E. Raines Rd. Memphis, TN 38116;35.0350553;-90.0326556;47157022111;47157022111;47157022111;6;11;8;34.15354524343897, -92.50896988093533
Future Leaders Community Partner Pre-K;DOE;2;18;20.0;;;;;;VPK;2341 Frayser Blvd;38127;Memphis;2341 Frayser Blvd Memphis, TN 38127;35.2166062;-89.9853168;47157010220;47157010220;47157010220;7;8;8;34.15354574965797, -92.50896976473943
Gardenview Elementary School Pre-K;DOE;20;20;40.0;TNReady;3rd - ELA;23.0;2.0;8.7;VPK;4075 Hartz Road;38116;Memphis;4075 Hartz Road Memphis, TN 38116;35.0370955;-89.9973771;47157022022;47157022022;47157022026;3;11;8;34.15354525547057, -92.5089697650817
Riverview School Pre-K;DOE;20;20;40.0;TNReady;3rd - ELA;24.0;12.0;50.0;VPK;241 Majuba Avenue;38109;Memphis;241 Majuba Avenue Memphis, TN 38109;35.0967687;-90.070735;47157005300;47157005300;47157005300;6;9;8;34.1535454056259, -92.50897002002145
Vollentine Elementary Pre-K;DOE;20;20;40.0;TNReady;3rd - ELA;35.0;3.0;8.6;VPK;1682 Vollintine Ave.;38107;Memphis;1682 Vollintine Ave. Memphis, TN 38107;35.1645438;-90.0014788;47157000700;47157000700;47157000700;7;7;8;34.153545604019975, -92.50896980658847
Jackson Elementary Pre-K;DOE;2;18;20.0;TNReady;3rd - ELA;36.0;11.0;30.6;VPK/Head Start;3925 Wales Avenue;38108;Memphis;3925 Wales Avenue Memphis, TN 38108;35.1844053;-89.9290723;47157008900;47157008900;47157008900;7;6;9;34.153545671672084, -92.50896957224923
E.E. Jeter;DOE;10;10;20.0;TNReady;3rd - ELA;38.0;10.0;26.3;VPK;7662 Benjestown Road;38053;Millington;7662 Benjestown Road Millington, TN 38053;35.3317901;-90.029372;47157020100;47157020101;47157020101;;1;;34.1535460573009, -92.50896993526672
E.E. Jeter;DOE;2;18;20.0;TNReady;3rd - ELA;38.0;10.0;26.3;VPK/Head Start;7662 Benjestown Road;38053;Millington;7662 Benjestown Road Millington, TN 38053;35.3317901;-90.029372;47157020100;47157020101;47157020101;;1;;34.1535460573009, -92.50896993526672
Bethel Grove Elementary Pre-K;DOE;40;40;80.0;TNReady;3rd - ELA;41.0;6.0;14.6;Head Start;2459 Arlington Street;38114;Memphis;2459 Arlington Street Memphis, TN 38114;35.0991039;-89.9811395;47157006900;47157006900;47157006900;4;9;8;34.15354542838141, -92.50896972516735
